[{"id":"曲艺·戏曲-00000","type":"曲艺·戏曲","bio":"","locationName":"海滨旅游度假区","address":"天津市塘沽海防路","lat":38.84736,"lng":117.62109,"publishedAt":"2022-05-20 17:20:00","year":2022,"retweets":0,"comments":0,"likes":0,"text":"【5月21日起，公交33路新都中学站点临时调整】因海滨南路新都中学站点封闭施工，自5月21日起，公交33路新都中学站点暂不停靠，在原新都中学站点南50米处设置临时站点。往返一致。待施工结束后即恢复原站点停靠，由此给你带来的不便，敬请谅解。"},{"id":"曲艺·戏曲-00001","type":"曲艺·戏曲","bio":"我想当个正面角色","locationName":"东丽湖","address":"湖滨路","lat":39.16254,"lng":117.49411,"publishedAt":"2023-12-07 07:39:00","year":2023,"retweets":0,"comments":0,"likes":0,"text":"死亡手工汉堡，一口花生酱味，热量爆炸了丧酒前的黄昏腾飞同发号的孜然羊肉，真便宜啊巴克不好吃，还窜了相声好听，真有业务啊..."},{"id":"曲艺·戏曲-00002","type":"曲艺·戏曲","bio":"憨豆先生的那些小邪恶，谁敢说自己从来没有过。","locationName":"神港","address":"大神堂桥","lat":39.21664,"lng":117.9555,"publishedAt":"2023-04-23 19:17:00","year":2023,"retweets":0,"comments":0,"likes":0,"text":"郭德纲相声里说的那棋子蟹，是不是就是这个？"},{"id":"曲艺·戏曲-00003","type":"曲艺·戏曲","bio":"","locationName":"蓟州溶洞","address":"洪水庄村北灵气山下","lat":40.12996,"lng":117.37145,"publishedAt":"2024-04-05 18:20:00","year":2024,"retweets":0,"comments":0,"likes":0,"text":"对天津人好感倍增尤其是网约车司机又帅又贴心关键是一张口就感觉是在说相声"},{"id":"曲艺·戏曲-00004","type":"曲艺·戏曲","bio":"《天津日报》是中国共产党天津市委员会机关报。创刊于1949年1月17日。","locationName":"黄崖关长城风景区","address":"黄崖关村津围公路","lat":40.24659,"lng":117.44243,"publishedAt":"2024-05-28 16:30:00","year":2024,"retweets":0,"comments":0,"likes":0,"text":"【到长城，带你穿越到大明】战旗猎猎，战鼓铿锵。艳阳之下的蓟北雄关，威武庄严。每周末，在黄崖口关处，大将军身披甲胄，手执官刀，排兵布阵，率兵巡城。关城之内，人流如织、熙来攘往。这并不是影视剧中的某个桥段，而是蓟州评剧三团以沉浸式演出的方式，为广大游客奉上的一场精彩演出——《大明边 ..."},{"id":"曲艺·戏曲-00005","type":"曲艺·戏曲","bio":"见天地 见众生 见自己","locationName":"天津泰达航母主题公园","address":"汉北路269号","lat":39.15695,"lng":117.80303,"publishedAt":"2024-05-19 22:01:00","year":2024,"retweets":0,"comments":0,"likes":0,"text":"常来邻居家看看～打卡航母主题公园&谦祥益相声"},{"id":"曲艺·戏曲-00006","type":"曲艺·戏曲","bio":"共青团天津市滨海新区委员会官方微博 ----青春作伴 与你同行","locationName":"北塘古镇","address":"杨北大街(彩虹桥西南侧)","lat":39.1082,"lng":117.71461,"publishedAt":"2024-05-02 14:39:00","year":2024,"retweets":0,"comments":0,"likes":0,"text":"【“水岸”北塘古镇 惊艳五一假期】五一假期的第一天，北塘古镇里，“大渔北塘·水岸艺术节”热闹进行，市民游客们尽情看表演、逛市集、登游船……在欢声笑语中享受休闲时光。一天的时间里，汉服古风巡游、双垒炮台中华武术秀、相声演出、皮影戏等活动轮番登场，大渔北塘故事馆 ..."},{"id":"曲艺·戏曲-00007","type":"曲艺·戏曲","bio":"家有三胞胎的处女座唐唐，爱生活，爱分享！🥳","locationName":"北塘古镇","address":"杨北大街(彩虹桥西南侧)","lat":39.1082,"lng":117.71461,"publishedAt":"2023-09-11 17:11:00","year":2023,"retweets":0,"comments":14,"likes":73,"text":"吃鱼吃虾，北塘为家～吃饱喝足，回北京的家！天津人张嘴就是说相声，天津的路牌一路看得乐～"},{"id":"曲艺·戏曲-00008","type":"曲艺·戏曲","bio":"认真生活  佛系艺人经纪","locationName":"北塘古镇","address":"杨北大街(彩虹桥西南侧)","lat":39.1082,"lng":117.71461,"publishedAt":"2024-02-16 23:09:00","year":2024,"retweets":0,"comments":0,"likes":0,"text":"复建的古城撂地的快板喜庆的九子向往的小院好看的鱼灯迷幻的展览"},{"id":"曲艺·戏曲-00009","type":"曲艺·戏曲","bio":"依然是从前那个简简单单的小丫头， 只闻花香，不谈悲喜，喝茶读书，不争朝夕。阳光暖一点再暖一点，日子慢一些再慢一些","locationName":"天津生态城","address":"天津市滨海新区中新天津生态城天津生态城绿色建筑研究院","lat":39.12393,"lng":117.73378,"publishedAt":"2023-12-02 09:09:00","year":2023,"retweets":0,"comments":0,"likes":0,"text":"京剧纪念币好漂亮呀"},{"id":"曲艺·戏曲-00010","type":"曲艺·戏曲","bio":"眼睛里有星星✨ ✨","locationName":"同盛里西区","address":"幸福北路与港兴道交叉口西340米","lat":38.71629,"lng":117.46483,"publishedAt":"2022-01-31 22:44:00","year":2022,"retweets":0,"comments":0,"likes":0,"text":"真是笑（并没有）中带泪受教育的节目，不过这跟相声的关系是.....？鲍鱼捞饭，厨师叫鲍鱼？"},{"id":"曲艺·戏曲-00011","type":"曲艺·戏曲","bio":"开心快乐的我喜欢交更多朋友！","locationName":"碧桂园","address":"津南区津港公路与八二路交口西南侧(八里台示范镇指示牌前行50米)","lat":38.93979,"lng":117.32789,"publishedAt":"2022-01-17 22:34:00","year":2022,"retweets":0,"comments":0,"likes":0,"text":"张云雷演唱铁片大鼓《威武天津》抗疫防疫天津加油"},{"id":"曲艺·戏曲-00012","type":"曲艺·戏曲","bio":"刘诗诗铁粉 唯爱诗诗姐姐❤️❤️ 谢谢大家关注!","locationName":"滨海外事学院","address":"学府路60号","lat":38.85793,"lng":117.46169,"publishedAt":"2023-10-08 18:09:00","year":2023,"retweets":0,"comments":0,"likes":0,"text":"因天津马拉松赛事将于2023年10月15日举行，交通管制期间 天津公交186、688、158路等多条路线临时调整 请广大乘客互相转告!"},{"id":"曲艺·戏曲-00013","type":"曲艺·戏曲","bio":"刘诗诗铁粉 唯爱诗诗姐姐❤️❤️ 谢谢大家关注!","locationName":"滨海外事学院","address":"学府路60号","lat":38.85793,"lng":117.46169,"publishedAt":"2022-06-29 15:21:00","year":2022,"retweets":0,"comments":0,"likes":0,"text":"滨海公交540路最新发车时间如下 同时调整首末班时间  请广大乘客互相转告！                         1图大港石化园区发车时间 2图二道沟发车时间"},{"id":"曲艺·戏曲-00014","type":"曲艺·戏曲","bio":"刘诗诗铁粉 唯爱诗诗姐姐❤️❤️ 谢谢大家关注!","locationName":"滨海外事学院","address":"学府路60号","lat":38.85793,"lng":117.46169,"publishedAt":"2022-02-23 19:40:00","year":2022,"retweets":0,"comments":0,"likes":0,"text":"自2月23日起，滨海公交925路执行新作业计划同时调整运营时间，太沙路公交站06：00-18：00  窦庄子06：30-18：30，发车时间具体如下。"},{"id":"曲艺·戏曲-00015","type":"曲艺·戏曲","bio":"天 道 酬 勤","locationName":"天津南服务区","address":"长深高速深圳方向","lat":38.93811,"lng":117.41641,"publishedAt":"2023-07-28 20:12:00","year":2023,"retweets":0,"comments":0,"likes":0,"text":"天津听相声咯"},{"id":"曲艺·戏曲-00016","type":"曲艺·戏曲","bio":"广告人；调酒师 ； 缤纷樱落伤心地，黛玉悔葬那年花！","locationName":"龙居花园二三区","address":"天津市西青区大寺镇柳杨道龙居花园二三区","lat":39.01702,"lng":117.24099,"publishedAt":"2022-08-24 09:40:00","year":2022,"retweets":0,"comments":0,"likes":0,"text":"咽炎犯了，咳了快俩月了昨晚突然想起苏文茂的相声小段《含梨片》了临睡之前吃了梨，最后一口含着幸亏是侧身睡觉，平躺有可能把自己卡死今早吐出来一看，梨就是有点锈，不黑啊……难道是病的不重？！哈哈哈"},{"id":"曲艺·戏曲-00017","type":"曲艺·戏曲","bio":"浮云不如过眼，过眼不必刹那，刹那也会羡慕＂一瞬＂，一瞬却等不及繁华，繁华亦如浮云。阿弥陀佛，说什么瞬间，转眼，都不如这＂一顺＂！","locationName":"梅江","address":"天津市河西区友谊南路梅江","lat":39.05696,"lng":117.20924,"publishedAt":"2024-06-15 18:47:00","year":2024,"retweets":0,"comments":0,"likes":0,"text":"是一个又要记录京剧观演的夜晚啊！吕洋和凌珂老师的《香莲案》，又是爱老戏的一天。会觉得，老戏是被很多演员打磨过的，带着更加深厚的体温和韵味，舞台表现力也会有更多的亮点。演员老师们压力自然也更大。还是期待的。说起来戏曲也都归属于文艺娱乐类的大项目，却让“陈世美”渣男的冤案背负 ..."},{"id":"曲艺·戏曲-00018","type":"曲艺·戏曲","bio":"浮云不如过眼，过眼不必刹那，刹那也会羡慕＂一瞬＂，一瞬却等不及繁华，繁华亦如浮云。阿弥陀佛，说什么瞬间，转眼，都不如这＂一顺＂！","locationName":"梅江","address":"天津市河西区友谊南路梅江","lat":39.05696,"lng":117.20924,"publishedAt":"2024-06-10 17:59:00","year":2024,"retweets":0,"comments":0,"likes":0,"text":"吃了甜粽子，再给自己预备下张派京剧《金山寺·断桥·雷峰塔》，端午节的仪式感，也就十之八九了。时间像手里的转经轮，轻轻一晃，原点到终点，就是一圈儿。想起2019年，人生第一场京剧演出，是去看尚派全本《白蛇传》。去年的端午节，我还在赶着板眼哼唱程派《白蛇传·你忍心》……忽然怀疑，我是不是 ..."},{"id":"曲艺·戏曲-00019","type":"曲艺·戏曲","bio":"浮云不如过眼，过眼不必刹那，刹那也会羡慕＂一瞬＂，一瞬却等不及繁华，繁华亦如浮云。阿弥陀佛，说什么瞬间，转眼，都不如这＂一顺＂！","locationName":"梅江","address":"天津市河西区友谊南路梅江","lat":39.05696,"lng":117.20924,"publishedAt":"2024-06-02 16:36:00","year":2024,"retweets":0,"comments":0,"likes":0,"text":"月初的京剧《王熙凤大闹荣国府》之后，月末必得配一出《红楼二尤》才算圆满。美中不足是张悦老师声带水肿了，这场荀派唱腔确实难为了。倒也合了尤二姐的身世凄凌。演员能完整的撑足全场，已经是毅力加运气了。倒是隔壁的小女孩儿，忽闪着水灵的大眼睛看的认真。不管和心里预设差了多少，五月份就在这 ..."},{"id":"曲艺·戏曲-00020","type":"曲艺·戏曲","bio":"浮云不如过眼，过眼不必刹那，刹那也会羡慕＂一瞬＂，一瞬却等不及繁华，繁华亦如浮云。阿弥陀佛，说什么瞬间，转眼，都不如这＂一顺＂！","locationName":"梅江","address":"天津市河西区友谊南路梅江","lat":39.05696,"lng":117.20924,"publishedAt":"2024-06-02 16:36:00","year":2024,"retweets":0,"comments":0,"likes":0,"text":"月初的京剧《王熙凤大闹荣国府》之后，月末必得配一出《红楼二尤》才算圆满。美中不足是张悦老师声带水肿了，这场荀派唱腔确实难为了。倒也合了尤二姐的身世凄凌。演员能完整的撑足全场，已经是毅力加运气了。倒是隔壁的小女孩儿，忽闪着水灵的大眼睛看的认真。不管和心里预设差了多少，五月份就在这 ..."},{"id":"曲艺·戏曲-00021","type":"曲艺·戏曲","bio":"浮云不如过眼，过眼不必刹那，刹那也会羡慕＂一瞬＂，一瞬却等不及繁华，繁华亦如浮云。阿弥陀佛，说什么瞬间，转眼，都不如这＂一顺＂！","locationName":"梅江","address":"天津市河西区友谊南路梅江","lat":39.05696,"lng":117.20924,"publishedAt":"2024-06-02 16:36:00","year":2024,"retweets":0,"comments":0,"likes":0,"text":"月初的京剧《王熙凤大闹荣国府》之后，月末必得配一出《红楼二尤》才算圆满。美中不足是张悦老师声带水肿了，这场荀派唱腔确实难为了。倒也合了尤二姐的身世凄凌。演员能完整的撑足全场，已经是毅力加运气了。倒是隔壁的小女孩儿，忽闪着水灵的大眼睛看的认真。不管和心里预设差了多少，五月份就在这 ..."},{"id":"曲艺·戏曲-00022","type":"曲艺·戏曲","bio":"浮云不如过眼，过眼不必刹那，刹那也会羡慕＂一瞬＂，一瞬却等不及繁华，繁华亦如浮云。阿弥陀佛，说什么瞬间，转眼，都不如这＂一顺＂！","locationName":"梅江","address":"天津市河西区友谊南路梅江","lat":39.05696,"lng":117.20924,"publishedAt":"2024-05-24 10:15:00","year":2024,"retweets":0,"comments":0,"likes":0,"text":"（晨起，天阴，略有风凉的畅快，心里像微波的湖，有一些思绪涌动，仍旧不疾不徐，是个心情不错的时刻。想起京剧《梅妃》。）其实程派《梅妃》落幕后，心里就升起一片凄伤之情。不知从何说起。看戏的时候想起年初的昆剧《长生殿》。安史之乱后，圣人痛失挚爱杨贵妃，大唐盛世璀璨坠落。而这中间还悬着 ..."},{"id":"曲艺·戏曲-00023","type":"曲艺·戏曲","bio":"浮云不如过眼，过眼不必刹那，刹那也会羡慕＂一瞬＂，一瞬却等不及繁华，繁华亦如浮云。阿弥陀佛，说什么瞬间，转眼，都不如这＂一顺＂！","locationName":"梅江","address":"天津市河西区友谊南路梅江","lat":39.05696,"lng":117.20924,"publishedAt":"2024-05-24 10:15:00","year":2024,"retweets":0,"comments":0,"likes":0,"text":"（晨起，天阴，略有风凉的畅快，心里像微波的湖，有一些思绪涌动，仍旧不疾不徐，是个心情不错的时刻。想起京剧《梅妃》。）其实程派《梅妃》落幕后，心里就升起一片凄伤之情。不知从何说起。看戏的时候想起年初的昆剧《长生殿》。安史之乱后，圣人痛失挚爱杨贵妃，大唐盛世璀璨坠落。而这中间还悬着 ..."},{"id":"曲艺·戏曲-00024","type":"曲艺·戏曲","bio":"浮云不如过眼，过眼不必刹那，刹那也会羡慕＂一瞬＂，一瞬却等不及繁华，繁华亦如浮云。阿弥陀佛，说什么瞬间，转眼，都不如这＂一顺＂！","locationName":"梅江","address":"天津市河西区友谊南路梅江","lat":39.05696,"lng":117.20924,"publishedAt":"2024-05-24 10:15:00","year":2024,"retweets":0,"comments":0,"likes":0,"text":"（晨起，天阴，略有风凉的畅快，心里像微波的湖，有一些思绪涌动，仍旧不疾不徐，是个心情不错的时刻。想起京剧《梅妃》。）其实程派《梅妃》落幕后，心里就升起一片凄伤之情。不知从何说起。看戏的时候想起年初的昆剧《长生殿》。安史之乱后，圣人痛失挚爱杨贵妃，大唐盛世璀璨坠落。而这中间还悬着 ..."},{"id":"曲艺·戏曲-00025","type":"曲艺·戏曲","bio":"浮云不如过眼，过眼不必刹那，刹那也会羡慕＂一瞬＂，一瞬却等不及繁华，繁华亦如浮云。阿弥陀佛，说什么瞬间，转眼，都不如这＂一顺＂！","locationName":"梅江","address":"天津市河西区友谊南路梅江","lat":39.05696,"lng":117.20924,"publishedAt":"2024-05-24 10:15:00","year":2024,"retweets":0,"comments":0,"likes":0,"text":"（晨起，天阴，略有风凉的畅快，心里像微波的湖，有一些思绪涌动，仍旧不疾不徐，是个心情不错的时刻。想起京剧《梅妃》。）其实程派《梅妃》落幕后，心里就升起一片凄伤之情。不知从何说起。看戏的时候想起年初的昆剧《长生殿》。安史之乱后，圣人痛失挚爱杨贵妃，大唐盛世璀璨坠落。而这中间还悬着 ..."},{"id":"曲艺·戏曲-00026","type":"曲艺·戏曲","bio":"浮云不如过眼，过眼不必刹那，刹那也会羡慕＂一瞬＂，一瞬却等不及繁华，繁华亦如浮云。阿弥陀佛，说什么瞬间，转眼，都不如这＂一顺＂！","locationName":"梅江","address":"天津市河西区友谊南路梅江","lat":39.05696,"lng":117.20924,"publishedAt":"2024-05-13 22:53:00","year":2024,"retweets":0,"comments":0,"likes":0,"text":"和京剧《霸王别姬》的见面，是阔别了李碧华同名小说多年的重逢，这一回，真的是戏。史依弘老师的虞姬唱腔细腻，身段柔美，双剑并舞满堂彩，更是实至名归。直看到她下意识的轻扶项羽，才恍然记起，那是邓沐玮老爷子啊！髯口下的声腔，气在韵在，是穷途末路上屹立不倒的霸王！（最最感动的是，老爷子第 ..."},{"id":"曲艺·戏曲-00027","type":"曲艺·戏曲","bio":"浮云不如过眼，过眼不必刹那，刹那也会羡慕＂一瞬＂，一瞬却等不及繁华，繁华亦如浮云。阿弥陀佛，说什么瞬间，转眼，都不如这＂一顺＂！","locationName":"梅江","address":"天津市河西区友谊南路梅江","lat":39.05696,"lng":117.20924,"publishedAt":"2024-05-13 22:53:00","year":2024,"retweets":0,"comments":0,"likes":0,"text":"和京剧《霸王别姬》的见面，是阔别了李碧华同名小说多年的重逢，这一回，真的是戏。史依弘老师的虞姬唱腔细腻，身段柔美，双剑并舞满堂彩，更是实至名归。直看到她下意识的轻扶项羽，才恍然记起，那是邓沐玮老爷子啊！髯口下的声腔，气在韵在，是穷途末路上屹立不倒的霸王！（最最感动的是，老爷子第 ..."},{"id":"曲艺·戏曲-00028","type":"曲艺·戏曲","bio":"浮云不如过眼，过眼不必刹那，刹那也会羡慕＂一瞬＂，一瞬却等不及繁华，繁华亦如浮云。阿弥陀佛，说什么瞬间，转眼，都不如这＂一顺＂！","locationName":"梅江","address":"天津市河西区友谊南路梅江","lat":39.05696,"lng":117.20924,"publishedAt":"2024-05-13 22:53:00","year":2024,"retweets":0,"comments":0,"likes":0,"text":"和京剧《霸王别姬》的见面，是阔别了李碧华同名小说多年的重逢，这一回，真的是戏。史依弘老师的虞姬唱腔细腻，身段柔美，双剑并舞满堂彩，更是实至名归。直看到她下意识的轻扶项羽，才恍然记起，那是邓沐玮老爷子啊！髯口下的声腔，气在韵在，是穷途末路上屹立不倒的霸王！（最最感动的是，老爷子第 ..."},{"id":"曲艺·戏曲-00029","type":"曲艺·戏曲","bio":"浮云不如过眼，过眼不必刹那，刹那也会羡慕＂一瞬＂，一瞬却等不及繁华，繁华亦如浮云。阿弥陀佛，说什么瞬间，转眼，都不如这＂一顺＂！","locationName":"梅江","address":"天津市河西区友谊南路梅江","lat":39.05696,"lng":117.20924,"publishedAt":"2024-05-13 22:53:00","year":2024,"retweets":0,"comments":0,"likes":0,"text":"和京剧《霸王别姬》的见面，是阔别了李碧华同名小说多年的重逢，这一回，真的是戏。史依弘老师的虞姬唱腔细腻，身段柔美，双剑并舞满堂彩，更是实至名归。直看到她下意识的轻扶项羽，才恍然记起，那是邓沐玮老爷子啊！髯口下的声腔，气在韵在，是穷途末路上屹立不倒的霸王！（最最感动的是，老爷子第 ..."},{"id":"曲艺·戏曲-00030","type":"曲艺·戏曲","bio":"浮云不如过眼，过眼不必刹那，刹那也会羡慕＂一瞬＂，一瞬却等不及繁华，繁华亦如浮云。阿弥陀佛，说什么瞬间，转眼，都不如这＂一顺＂！","locationName":"梅江","address":"天津市河西区友谊南路梅江","lat":39.05696,"lng":117.20924,"publishedAt":"2024-05-04 18:21:00","year":2024,"retweets":0,"comments":0,"likes":0,"text":"最初知道《战宛城》的戏，是源于电视剧《鬓边不是海棠红》。就是那几个镜头的筱派花旦，扮相和做工，就够我神魂颠倒了。昨儿总算亲见了京剧《战宛城》，原是一众武生打戏里的花旦，就更显着娇艳！是那种揪着心、提着劲儿的看打架，枪花儿和大靠翻飞，双刀挥舞，髯口卷起来像江河，锣音儿萦绕，只觉得 ..."},{"id":"曲艺·戏曲-00031","type":"曲艺·戏曲","bio":"浮云不如过眼，过眼不必刹那，刹那也会羡慕＂一瞬＂，一瞬却等不及繁华，繁华亦如浮云。阿弥陀佛，说什么瞬间，转眼，都不如这＂一顺＂！","locationName":"梅江","address":"天津市河西区友谊南路梅江","lat":39.05696,"lng":117.20924,"publishedAt":"2024-04-04 18:26:00","year":2024,"retweets":0,"comments":0,"likes":0,"text":"同一间咖啡馆，坐同样的位置，继续读同一本书，同样等待京剧开场。假期也不过如此。而“不过如此”的时间，悠闲的安全感拉满，伴进轻轻的欢喜，伴进马卡龙的焦糖甜。就觉得日子依旧，好。至于《拾玉镯》的做功，《审头刺汤》的惊险，那得看了戏才知道呢！"},{"id":"曲艺·戏曲-00032","type":"曲艺·戏曲","bio":"天津京剧院老旦演员，玉慧同学休闲放松区，分享工作和生活～","locationName":"梅江","address":"天津市河西区友谊南路梅江","lat":39.05696,"lng":117.20924,"publishedAt":"2024-01-27 19:41:00","year":2024,"retweets":0,"comments":0,"likes":11,"text":"新编现代京剧《信仰的味道》在我院首次呈现，荣幸参与，饰演陈母(陈望道的母亲)，期待下一阶段，打磨最终版，能够与观众早日见面。"},{"id":"曲艺·戏曲-00033","type":"曲艺·戏曲","bio":"浮云不如过眼，过眼不必刹那，刹那也会羡慕＂一瞬＂，一瞬却等不及繁华，繁华亦如浮云。阿弥陀佛，说什么瞬间，转眼，都不如这＂一顺＂！","locationName":"梅江","address":"天津市河西区友谊南路梅江","lat":39.05696,"lng":117.20924,"publishedAt":"2022-12-16 11:55:00","year":2022,"retweets":0,"comments":0,"likes":0,"text":"嗓子已经现出颓势了，趁着还有“大半壁江山”在，抓紧过两折京剧的瘾，谁知道明儿是个啥声音！真希望这些难哩难受的劲儿，能被我红稠的普洱熟茶送走。（退、退、退！）连花盘坐，双手死掐少冲穴，心中默念“嗓子疼，你走啊！”"},{"id":"曲艺·戏曲-00034","type":"曲艺·戏曲","bio":"太次了！！！！！","locationName":"時代奧城","address":"天津市西青区李七庄街道昌凌路(地铁站)美域豪庭","lat":39.0757,"lng":117.1575,"publishedAt":"2022-01-30 22:48:00","year":2022,"retweets":0,"comments":0,"likes":0,"text":"看天津春晚～德云相声ing～要不要打开呢。。。"},{"id":"曲艺·戏曲-00035","type":"曲艺·戏曲","bio":"天津职业技术师范大学是我国最早建立的以培养职教师资为主要任务的普通高校，是教育部与天津市共建的大学，成于1979年。微博校园官博联盟会员单位。","locationName":"天津职业技术师范大学","address":"大沽南路1310号","lat":39.05811,"lng":117.29002,"publishedAt":"2023-06-30 12:47:00","year":2023,"retweets":0,"comments":0,"likes":0,"text":"重温红色经典，追溯革命峥嵘岁月。为充分发挥中华优秀传统文化在思想政治教育和实践育人中的服务功能，6月27日，一堂别开生面的“京剧党课”在天职师大精彩开讲。党委宣传部特邀京剧名家、南开大学汉语言文化学院副院长刘佳教授，天津工艺美术职业学院副院长王钦，天津市青年京剧团国家级 ..."},{"id":"曲艺·戏曲-00036","type":"曲艺·戏曲","bio":"天津职业技术师范大学是我国最早建立的以培养职教师资为主要任务的普通高校，是教育部与天津市共建的大学，成于1979年。微博校园官博联盟会员单位。","locationName":"天津职业技术师范大学","address":"大沽南路1310号","lat":39.05811,"lng":117.29002,"publishedAt":"2023-06-30 12:47:00","year":2023,"retweets":0,"comments":0,"likes":0,"text":"重温红色经典，追溯革命峥嵘岁月。为充分发挥中华优秀传统文化在思想政治教育和实践育人中的服务功能，6月27日，一堂别开生面的“京剧党课”在天职师大精彩开讲。党委宣传部特邀京剧名家、南开大学汉语言文化学院副院长刘佳教授，天津工艺美术职业学院副院长王钦，天津市青年京剧团国家级 ..."},{"id":"曲艺·戏曲-00037","type":"曲艺·戏曲","bio":"天津职业技术师范大学是我国最早建立的以培养职教师资为主要任务的普通高校，是教育部与天津市共建的大学，成于1979年。微博校园官博联盟会员单位。","locationName":"天津职业技术师范大学","address":"大沽南路1310号","lat":39.05811,"lng":117.29002,"publishedAt":"2023-06-30 12:47:00","year":2023,"retweets":0,"comments":0,"likes":0,"text":"重温红色经典，追溯革命峥嵘岁月。为充分发挥中华优秀传统文化在思想政治教育和实践育人中的服务功能，6月27日，一堂别开生面的“京剧党课”在天职师大精彩开讲。党委宣传部特邀京剧名家、南开大学汉语言文化学院副院长刘佳教授，天津工艺美术职业学院副院长王钦，天津市青年京剧团国家级 ..."},{"id":"曲艺·戏曲-00038","type":"曲艺·戏曲","bio":"天津职业技术师范大学是我国最早建立的以培养职教师资为主要任务的普通高校，是教育部与天津市共建的大学，成于1979年。微博校园官博联盟会员单位。","locationName":"天津职业技术师范大学","address":"大沽南路1310号","lat":39.05811,"lng":117.29002,"publishedAt":"2023-06-30 12:47:00","year":2023,"retweets":0,"comments":0,"likes":0,"text":"重温红色经典，追溯革命峥嵘岁月。为充分发挥中华优秀传统文化在思想政治教育和实践育人中的服务功能，6月27日，一堂别开生面的“京剧党课”在天职师大精彩开讲。党委宣传部特邀京剧名家、南开大学汉语言文化学院副院长刘佳教授，天津工艺美术职业学院副院长王钦，天津市青年京剧团国家级 ..."},{"id":"曲艺·戏曲-00039","type":"曲艺·戏曲","bio":"天津职业技术师范大学是我国最早建立的以培养职教师资为主要任务的普通高校，是教育部与天津市共建的大学，成于1979年。微博校园官博联盟会员单位。","locationName":"天津职业技术师范大学","address":"大沽南路1310号","lat":39.05811,"lng":117.29002,"publishedAt":"2023-06-30 12:47:00","year":2023,"retweets":0,"comments":0,"likes":0,"text":"重温红色经典，追溯革命峥嵘岁月。为充分发挥中华优秀传统文化在思想政治教育和实践育人中的服务功能，6月27日，一堂别开生面的“京剧党课”在天职师大精彩开讲。党委宣传部特邀京剧名家、南开大学汉语言文化学院副院长刘佳教授，天津工艺美术职业学院副院长王钦，天津市青年京剧团国家级 ..."},{"id":"曲艺·戏曲-00040","type":"曲艺·戏曲","bio":"天津职业技术师范大学是我国最早建立的以培养职教师资为主要任务的普通高校，是教育部与天津市共建的大学，成于1979年。微博校园官博联盟会员单位。","locationName":"天津职业技术师范大学","address":"大沽南路1310号","lat":39.05811,"lng":117.29002,"publishedAt":"2023-06-30 12:47:00","year":2023,"retweets":0,"comments":0,"likes":0,"text":"重温红色经典，追溯革命峥嵘岁月。为充分发挥中华优秀传统文化在思想政治教育和实践育人中的服务功能，6月27日，一堂别开生面的“京剧党课”在天职师大精彩开讲。党委宣传部特邀京剧名家、南开大学汉语言文化学院副院长刘佳教授，天津工艺美术职业学院副院长王钦，天津市青年京剧团国家级 ..."},{"id":"曲艺·戏曲-00041","type":"曲艺·戏曲","bio":"天津职业技术师范大学是我国最早建立的以培养职教师资为主要任务的普通高校，是教育部与天津市共建的大学，成于1979年。微博校园官博联盟会员单位。","locationName":"天津职业技术师范大学","address":"大沽南路1310号","lat":39.05811,"lng":117.29002,"publishedAt":"2023-06-30 12:47:00","year":2023,"retweets":0,"comments":0,"likes":0,"text":"重温红色经典，追溯革命峥嵘岁月。为充分发挥中华优秀传统文化在思想政治教育和实践育人中的服务功能，6月27日，一堂别开生面的“京剧党课”在天职师大精彩开讲。党委宣传部特邀京剧名家、南开大学汉语言文化学院副院长刘佳教授，天津工艺美术职业学院副院长王钦，天津市青年京剧团国家级 ..."},{"id":"曲艺·戏曲-00042","type":"曲艺·戏曲","bio":"天津职业技术师范大学是我国最早建立的以培养职教师资为主要任务的普通高校，是教育部与天津市共建的大学，成于1979年。微博校园官博联盟会员单位。","locationName":"天津职业技术师范大学","address":"大沽南路1310号","lat":39.05811,"lng":117.29002,"publishedAt":"2023-06-30 12:47:00","year":2023,"retweets":0,"comments":0,"likes":0,"text":"重温红色经典，追溯革命峥嵘岁月。为充分发挥中华优秀传统文化在思想政治教育和实践育人中的服务功能，6月27日，一堂别开生面的“京剧党课”在天职师大精彩开讲。党委宣传部特邀京剧名家、南开大学汉语言文化学院副院长刘佳教授，天津工艺美术职业学院副院长王钦，天津市青年京剧团国家级 ..."},{"id":"曲艺·戏曲-00043","type":"曲艺·戏曲","bio":"津云，天津市移动新媒体总平台、总集成，一个有新闻理想、融合基因、生活服务、人工智能的媒体集群。","locationName":"天津中德职业技术学院","address":"海河教育园雅深路2号","lat":39.01021,"lng":117.37963,"publishedAt":"2024-06-06 14:20:00","year":2024,"retweets":0,"comments":0,"likes":0,"text":"【天津中德应用技术大学走出一条特色发展之路 产教融合引领高质量充分就业】 “大家可以仔细看一下，不锈钢材质的加工参数与我们校内课堂上传统的铝制品完全不同，我们要根据零件的材质，及时调整参数······”昨天上午，在天津中德应用技术大学德玛吉数控技术中心，来自阳光泵业（天津）有限 ..."},{"id":"曲艺·戏曲-00044","type":"曲艺·戏曲","bio":"在海河和海洋文化的哺育下，天津以高度开放的姿态融入世界经济发展的大格局，正在向独具特色的国际性、现代化宜居城市迈进。这里是天津市政府新闻办…","locationName":"天津中德职业技术学院","address":"海河教育园雅深路2号","lat":39.01021,"lng":117.37963,"publishedAt":"2024-06-06 07:33:00","year":2024,"retweets":0,"comments":0,"likes":0,"text":"【天津中德应用技术大学走出一条特色发展之路 产教融合引领高质量充分就业】“大家可以仔细看一下，不锈钢材质的加工参数与我们校内课堂上传统的铝制品完全不同，我们要根据零件的材质，及时调整参数······”昨天上午，在天津中德应用技术大学德玛吉数控技术中心，来自阳光泵业（ ..."},{"id":"曲艺·戏曲-00045","type":"曲艺·戏曲","bio":"寻，信仰之美！ 寻，发展之美！ 寻，凝聚之美！ 寻，人文之美！ ​​​","locationName":"天津轻工职业技术学院","address":"海河教育园区雅观路1号","lat":39.0213,"lng":117.36684,"publishedAt":"2024-01-11 15:56:00","year":2024,"retweets":0,"comments":0,"likes":0,"text":"知香园社区开展传统文化教育分享活动——画脸谱 识京剧京剧是如何形成的？京剧分为哪几个行当？京剧的板式、表演方法是什么？近日，一场京剧传统文化教育分享活动在知香园社区“四点半课堂”举行。来自天津轻工职业技术学院艺术工程学院的志愿者为大家带来了精彩的讲解，15组亲子家庭共享了这场小型 ..."},{"id":"曲艺·戏曲-00046","type":"曲艺·戏曲","bio":"","locationName":"融创中央学府","address":"新慧路4号西南方向70米","lat":39.00447,"lng":117.38063,"publishedAt":"2022-01-30 21:30:00","year":2022,"retweets":0,"comments":0,"likes":0,"text":"开始听相声"},{"id":"曲艺·戏曲-00047","type":"曲艺·戏曲","bio":"未来的某一天，你会感谢曾经那么努力的你","locationName":"海河外滩公园","address":"永久街和上海道交口","lat":39.01363,"lng":117.65902,"publishedAt":"2023-08-06 19:40:00","year":2023,"retweets":0,"comments":0,"likes":0,"text":"听相声ing…"},{"id":"曲艺·戏曲-00048","type":"曲艺·戏曲","bio":"","locationName":"天津万丽泰达酒店及会议中心","address":"第二大街29号","lat":39.02869,"lng":117.69125,"publishedAt":"2022-01-20 16:55:00","year":2022,"retweets":0,"comments":0,"likes":0,"text":"天津青年戏曲人争做战“疫”志愿者 演出服换成红马甲　全城第三次大筛前夜，天津评剧院青年演员李宣捷几乎一夜没睡，脑子里不是居民们排队做核酸检测的画面，就是“天津的人民勇猛向前、不分昼夜与病魔周旋”的评剧旋律。看看手机，已是15日4时，李宣捷简单洗漱后，直奔东丽区徐庄 ..."},{"id":"曲艺·戏曲-00049","type":"曲艺·戏曲","bio":"","locationName":"天津万丽泰达酒店及会议中心","address":"第二大街29号","lat":39.02869,"lng":117.69125,"publishedAt":"2022-01-01 20:16:00","year":2022,"retweets":0,"comments":0,"likes":0,"text":"非必要不离津 减少流动不聚集 在家过元旦一样热闹 　昨晚，一场别开生面的迎元旦联欢晚会在红桥区铃铛阁街道明华里社区居民微信群里拉开帷幕，歌曲《新年好》、舞蹈《领航新时代》、京韵大鼓《重整河山待后生》、戏曲《故乡是北京》等精彩节目轮番“登台”，大伙儿看得有滋有味， ..."},{"id":"曲艺·戏曲-00050","type":"曲艺·戏曲","bio":"天津有瑜相声茶馆运营官，重度曲艺爱好者，天津三星，天津泰达天津津门虎铁杆球迷。“威镇海门GROUP”津门虎球迷助威团主理人，目前还没人理我。","locationName":"泰达MSD","address":"第二大街58号","lat":39.0231,"lng":117.70173,"publishedAt":"2024-04-23 12:52:00","year":2024,"retweets":0,"comments":0,"likes":0,"text":"李宗盛来天津表演李派快板"},{"id":"曲艺·戏曲-00051","type":"曲艺·戏曲","bio":"","locationName":"泰达足球场","address":"奥运路与泰达大街交叉口东北400米","lat":39.03051,"lng":117.71894,"publishedAt":"2023-07-22 00:09:00","year":2023,"retweets":0,"comments":0,"likes":0,"text":"看球⚽️真的太欢乐了全场球迷 特别可爱全力支持 我喊的嗓子都哑了现场看球和看电视比起来气氛好太多今天学了好多新词儿“谢天谢地谢维军”“就地活埋”哈哈哈哈 比听相声还搞笑呢 3:3 6个球 很激烈 很精彩 ..."},{"id":"曲艺·戏曲-00052","type":"曲艺·戏曲","bio":"","locationName":"泰达足球场","address":"滨海新区第五大街(近北海路)","lat":39.0327,"lng":117.71362,"publishedAt":"2024-04-07 00:09:00","year":2024,"retweets":0,"comments":0,"likes":0,"text":"结果或许不尽如人意 但是及时调整我相信会越来越好顿哥不要有压力 都会好起来"},{"id":"曲艺·戏曲-00053","type":"曲艺·戏曲","bio":"◡̈⃝ྃ 不是什么大道理，他知道江湖艰险并且只想照顾好你💙ྃ ◡̈⃝ྃ","locationName":"泰达足球场","address":"滨海新区第五大街(近北海路)","lat":39.0327,"lng":117.71362,"publishedAt":"2023-09-30 00:06:00","year":2023,"retweets":0,"comments":0,"likes":0,"text":"现场很燃呀哈哈哈可给贾师傅激动兴奋的哟～球迷大哥们都好可爱呀底气十足的连骂街都像说相声一样哈哈哈这个中秋节可真有意义"},{"id":"曲艺·戏曲-00054","type":"曲艺·戏曲","bio":"","locationName":"南开大学泰达学院","address":"宏达街23号","lat":39.0252,"lng":117.70781,"publishedAt":"2024-02-13 12:01:00","year":2024,"retweets":0,"comments":0,"likes":0,"text":"2月12日下午，天津市曲艺团 “鼓韵津风”——京津冀鼓曲名家西河大鼓专场演出圆满成功~天津卫视新闻频道报道"},{"id":"曲艺·戏曲-00055","type":"曲艺·戏曲","bio":"唯弹琴与阅读不可辜负18649","locationName":"绿岛公园","address":"曲径路","lat":39.04422,"lng":117.65596,"publishedAt":"2022-05-24 15:15:00","year":2022,"retweets":0,"comments":0,"likes":0,"text":"给学生录的《秦桑曲》快板→慢弹示范"},{"id":"曲艺·戏曲-00056","type":"曲艺·戏曲","bio":"倒煤卖银做镍的铜妹是条鱼","locationName":"滨海新区","address":"滨海新区","lat":39.01692,"lng":117.69016,"publishedAt":"2023-12-18 20:06:00","year":2023,"retweets":0,"comments":0,"likes":0,"text":"【攻略】天津·滨海新区一日游～安排的明明白白～ 北京到天津，从一睁眼醒来，不到4个小时就能看到海～（以下待编辑，我先嗦口粉儿） 来啦来啦～【打卡3️⃣个景点＋我社相声全天agenda】6:30 week up7:30 出发8:30 高铁-北京南9:40 高铁-滨海（单程60多）..."},{"id":"曲艺·戏曲-00057","type":"曲艺·戏曲","bio":"共青团天津市滨海新区委员会官方微博 ----青春作伴 与你同行","locationName":"滨海新区","address":"滨海新区","lat":39.01692,"lng":117.69016,"publishedAt":"2023-01-27 11:36:00","year":2023,"retweets":0,"comments":0,"likes":0,"text":"【 泰达民俗文化灯光节亮相“于响” 点亮“滨城”】大年初五，2023年滨城于响片区灯光节在天津经开区于家堡滨河公园正式拉开帷幕。民俗表演、民俗市集、灯光秀亮相“于响”，点亮“滨城”。 晚上6点，在天津市首块8K超高清大屏下，别具天津特色的曲艺专场表演准时上演。快板、相声、京东大 ..."},{"id":"曲艺·戏曲-00058","type":"曲艺·戏曲","bio":"没啥说的","locationName":"天津南站","address":"张家窝镇津晋高速公路(近京福支线)","lat":39.05579,"lng":117.05445,"publishedAt":"2024-04-26 16:36:00","year":2024,"retweets":0,"comments":0,"likes":0,"text":"我看看有没有一股快板儿味儿"},{"id":"曲艺·戏曲-00059","type":"曲艺·戏曲","bio":"","locationName":"杨柳青古镇","address":"杨柳青镇","lat":39.13439,"lng":117.00404,"publishedAt":"2024-04-29 16:49:00","year":2024,"retweets":0,"comments":0,"likes":0,"text":"【西青游景 邂逅国风 |“花容古韵”国风音乐会将要讲述】⏰时间：5月2日上午11:00📍地点：杨柳青古镇景区安家大院📣内容：本次活动，将通过唢呐、古筝、二胡、琵琶等乐器独奏和国风舞蹈表演以及京剧经典片段的演出，让游客参观古宅院落的同时享受一场充满国风的视听盛宴。 ..."},{"id":"曲艺·戏曲-00060","type":"曲艺·戏曲","bio":"","locationName":"杨柳青古镇","address":"杨柳青镇","lat":39.13439,"lng":117.00404,"publishedAt":"2024-04-29 17:29:00","year":2024,"retweets":0,"comments":0,"likes":0,"text":"【西青游景 邂逅国风 |“石府良缘”沉浸式体验演出“五一”上演】⏰时间：5月1日上午11:00，5月2日上午11:00📍地点：杨柳青古镇景区石家大院📣内容：各位游客可在活动期间于戏楼、花园、书房外、水局外观看相声、武术、戏法、书画、古琴等形式的表演并与演员互动，沉浸式体验西 ..."},{"id":"曲艺·戏曲-00061","type":"曲艺·戏曲","bio":"FM103.9 总有美好在路上！","locationName":"杨柳青古镇","address":"杨柳青镇","lat":39.13439,"lng":117.00404,"publishedAt":"2024-02-01 21:57:00","year":2024,"retweets":0,"comments":0,"likes":0,"text":"【】2024春节期间，天津杨柳青古镇将推出一系列民俗活动，并举办杨柳青国潮灯展，组织在御河道、如意大街、小广场、石家大院戏楼安排了民俗花卉展演，京剧、评剧、河北梆子等一系列的演出，提升了过年的年味儿。景区在不同的点位布置了十几组 ..."},{"id":"曲艺·戏曲-00062","type":"曲艺·戏曲","bio":"欢迎来到我的微博！我们是正在参加中广协大赛的大学生。我们会分享我们的创作过程和比赛经历。让我们一起在广告的世界里共同成长，创造更多精彩！","locationName":"杨柳青站","address":"杨柳青镇西青道青致路口","lat":39.14106,"lng":116.99494,"publishedAt":"2023-10-18 21:58:00","year":2023,"retweets":0,"comments":0,"likes":0,"text":"，一步一景，每个角落都有历史的痕迹，仿佛走进了一幅活色生香的历史画卷。这里不仅有的精美工艺，更有古镇人民的热情好客。走在石板古巷，听那巷口传来的京剧声，仿佛时光倒流，让人沉醉。杨柳青古镇，等你来探寻，感受那份深深的历史韵味。  ..."},{"id":"曲艺·戏曲-00063","type":"曲艺·戏曲","bio":"to see the world","locationName":"兴苑别墅","address":"天津市西青区中北镇兴苑别墅","lat":39.12786,"lng":117.03436,"publishedAt":"2023-02-18 22:17:00","year":2023,"retweets":0,"comments":0,"likes":0,"text":"来天津当然是早上吃个狗不理包子，中午看个西伯利亚海鸥，晚上再听个德云社相声"},{"id":"曲艺·戏曲-00064","type":"曲艺·戏曲","bio":"成立于2018年5月23日，是一个以“体验式演出”为主要活动方式的京剧艺术传习组织，立足天津，面向全国，为喜欢京剧的高校师生搭建专业的展示平台。","locationName":"天津大学卫津路校区","address":"卫津路92号","lat":39.10911,"lng":117.16404,"publishedAt":"2024-06-15 21:50:00","year":2024,"retweets":0,"comments":0,"likes":0,"text":"【联盟艺术顾问凌珂做客天津大学】        昨晚，由共青团天津大学委员会、天津大学人文艺术学院、天津市高校京剧联盟共同主办的天津大学青年文化论坛——凌珂京剧艺术讲座在天津大学成功举办。        讲座现场，气氛热烈，掌声阵阵。联盟成员与凌珂老师频频互动。大家共同感受京剧之美、体验戏曲之 ..."},{"id":"曲艺·戏曲-00065","type":"曲艺·戏曲","bio":"记不太清了","locationName":"天津大学卫津路校区","address":"卫津路92号","lat":39.10911,"lng":117.16404,"publishedAt":"2024-06-14 22:48:00","year":2024,"retweets":0,"comments":0,"likes":0,"text":"天大 南开后面那个树林真的超级凉快司机一听见我们是四川的就说 诶我第一任女朋友就是川渝的  还说狗不理包子真的超级难吃 让我们别去买外加在公园热成狗 躺着椅子被阿姨问 小姑娘是不是遇到什么困难了回去路上也不忘买小马宝莉卡片还有一个司机 一直和我们讲天津相声这回事and在狮子林这  看大爷 ..."},{"id":"曲艺·戏曲-00066","type":"曲艺·戏曲","bio":"成立于2018年5月23日，是一个以“体验式演出”为主要活动方式的京剧艺术传习组织，立足天津，面向全国，为喜欢京剧的高校师生搭建专业的展示平台。","locationName":"天津大学卫津路校区","address":"卫津路92号","lat":39.10911,"lng":117.16404,"publishedAt":"2024-05-23 09:17:00","year":2024,"retweets":0,"comments":0,"likes":0,"text":"我发表了头条文章:《天津市高校京剧联盟成立6周年》"},{"id":"曲艺·戏曲-00067","type":"曲艺·戏曲","bio":"","locationName":"天津奥林匹克中心","address":"凌宾路1号","lat":39.07431,"lng":117.17011,"publishedAt":"2024-05-26 06:23:00","year":2024,"retweets":0,"comments":0,"likes":0,"text":"『津沽唱晚，在五月』天津之前总开玩笑说 这一巡跑了这么久也该收官了 期待更美好的下一巡却在“棱”真正迎来最完美的Happy Ending的时候哭崩要如何形容今晚呢 是完整版行走的鱼和一个人的冬天 是终于听到我的执念曲再回首 是你和镇宇哥跟讲相声一样的友情岁月 是520根须尽欢冰淇淋是十一场的大合 ..."},{"id":"曲艺·戏曲-00068","type":"曲艺·戏曲","bio":"天津工业大学同乐友乐相声社创始于2008年6月，已经经历近十余年历史,在研究传统相声的基础上，对民族传统艺术加以改进。","locationName":"天津工业大学","address":"宾水西道399号","lat":39.06639,"lng":117.10336,"publishedAt":"2024-05-10 15:20:00","year":2024,"retweets":0,"comments":0,"likes":0,"text":"5月13日18点，天工大同乐友乐相声社十五周年系列演出在二公教C226!!!都来!!!"},{"id":"曲艺·戏曲-00069","type":"曲艺·戏曲","bio":"天津工业大学同乐友乐相声社创始于2008年6月，已经经历近十余年历史,在研究传统相声的基础上，对民族传统艺术加以改进。","locationName":"天津工业大学","address":"宾水西道399号","lat":39.06639,"lng":117.10336,"publishedAt":"2024-04-12 17:03:00","year":2024,"retweets":0,"comments":0,"likes":0,"text":"🎉🎭 天津工业大学同乐友乐相声社：甲辰龙年开箱大吉！！！ 🎭🎉亲爱的天津工业大学的师生们，以及各位相声爱好者们，准备好迎接一场语言的盛宴了吗？🎊🐉 甲辰龙年，同乐友乐相声社开箱大戏，即将拉开帷幕！ 🐉在这个春暖花开的季节，我们的相声社就像是一只沉睡了一个冬天的龙，终 ..."},{"id":"曲艺·戏曲-00070","type":"曲艺·戏曲","bio":"跨界创业者，工程界的文青，水产界的杂家","locationName":"万丽天津宾馆","address":"宾水道16号","lat":39.08432,"lng":117.18914,"publishedAt":"2024-01-09 14:00:00","year":2024,"retweets":0,"comments":0,"likes":0,"text":"组委会细节越来越进步了啊，中午有一些个性化餐食外，午休间隙还安排了天津特色相声。"},{"id":"曲艺·戏曲-00071","type":"曲艺·戏曲","bio":"政治学博士，研究生导师","locationName":"天津理工大学","address":"宾水西道391号","lat":39.06094,"lng":117.13358,"publishedAt":"2024-05-05 20:46:00","year":2024,"retweets":0,"comments":0,"likes":36,"text":"考研就该这样拼！天理的同学们五一假期不回家、不旅游、不去听相声，多数报考南开、天大、哈工大等名校，假期就在教室里决战985。"},{"id":"曲艺·戏曲-00072","type":"曲艺·戏曲","bio":"天津考公考编指导，个人服务！天津高校在编教师一对一指导。让你备考少走弯路🛰️DXSA12345","locationName":"南开大学","address":"天津市南开区卫津路94号","lat":39.10253,"lng":117.16256,"publishedAt":"2024-06-05 19:35:00","year":2024,"retweets":0,"comments":0,"likes":0,"text":"滨海新区事业编招聘100多人，岗位种类比较多，播音，农学甚至相声等冷门专业都有岗位可报，都有考试机会，大家把握住，上岸  一定要提前学，等考试出现再学就晚了"},{"id":"曲艺·戏曲-00073","type":"曲艺·戏曲","bio":"国家注册营养师，国家高级健康管理师 首都保健营养美食学会高级营养讲师  擅长各类人群营养配餐，尤其在母婴、儿童领域","locationName":"天津水上公园","address":"水上公园东路","lat":39.08789,"lng":117.16093,"publishedAt":"2023-12-22 22:56:00","year":2023,"retweets":0,"comments":0,"likes":0,"text":"#中国营养大会第二届~天津站谢谢李老师的安排吃了特色菜、顺便听了相声、认识新的朋友嗨~冰雪世界❄️我想说真的没上海冷"},{"id":"曲艺·戏曲-00074","type":"曲艺·戏曲","bio":"自由～自在～","locationName":"滨湖剧院","address":"环湖中路6号","lat":39.08397,"lng":117.17835,"publishedAt":"2024-06-15 20:19:00","year":2024,"retweets":0,"comments":0,"likes":0,"text":"这香莲案，知道的是看京剧，不知道还以为演什么地方戏呢。"},{"id":"曲艺·戏曲-00075","type":"曲艺·戏曲","bio":"","locationName":"滨湖剧院","address":"环湖中路6号","lat":39.08397,"lng":117.17835,"publishedAt":"2024-05-26 19:51:00","year":2024,"retweets":0,"comments":0,"likes":12,"text":"天津京剧院小生 焦鹏飞老师《平贵别窑》焦老师真的帅"},{"id":"曲艺·戏曲-00076","type":"曲艺·戏曲","bio":"一个初级票儿及邵氏电影孤独的守望者","locationName":"滨湖剧院","address":"环湖中路6号","lat":39.08397,"lng":117.17835,"publishedAt":"2024-05-18 19:05:00","year":2024,"retweets":0,"comments":0,"likes":0,"text":"天津京剧院女花脸刘嘉欣首演《李七长亭》！PS：捧捧来，这戏没人演了，女花脸更不容易，今介天，有点进伏了那意思啊！"},{"id":"曲艺·戏曲-00077","type":"曲艺·戏曲","bio":"","locationName":"滨湖剧院","address":"环湖中路6号","lat":39.08397,"lng":117.17835,"publishedAt":"2024-05-03 17:53:00","year":2024,"retweets":0,"comments":0,"likes":0,"text":"京剧《战宛城》，黄齐峰～"},{"id":"曲艺·戏曲-00078","type":"曲艺·戏曲","bio":"","locationName":"滨湖剧院","address":"环湖中路6号","lat":39.08397,"lng":117.17835,"publishedAt":"2024-05-03 13:48:00","year":2024,"retweets":0,"comments":0,"likes":0,"text":"天津京剧院 庆“五一”系列演出 《战宛城》 黄齐峰领衔"},{"id":"曲艺·戏曲-00079","type":"曲艺·戏曲","bio":"三地梆声振，关注大吕弘梆公众号！","locationName":"滨湖剧院","address":"环湖中路6号","lat":39.08397,"lng":117.17835,"publishedAt":"2024-05-05 07:03:00","year":2024,"retweets":0,"comments":0,"likes":0,"text":"首看京剧程派吕洋"},{"id":"曲艺·戏曲-00080","type":"曲艺·戏曲","bio":"摄影工作邀约请私信，或加我微信：sunjuefei。","locationName":"滨湖剧院","address":"环湖中路6号","lat":39.08397,"lng":117.17835,"publishedAt":"2024-04-21 14:06:00","year":2024,"retweets":0,"comments":0,"likes":21,"text":"【戏曲舞台摄影】 京剧《西施》（第一组） 曹馨月 饰 西施、李奕宣 饰 范蠡、王晓睿 饰 旋波（时间：2024年4月20日 下午；地点：天津滨湖剧院）"},{"id":"曲艺·戏曲-00081","type":"曲艺·戏曲","bio":"摄影工作邀约请私信，或加我微信：sunjuefei。","locationName":"滨湖剧院","address":"环湖中路6号","lat":39.08397,"lng":117.17835,"publishedAt":"2024-04-21 18:24:00","year":2024,"retweets":0,"comments":0,"likes":21,"text":"【戏曲舞台摄影】 京剧《西施》（第二组） 1、倪胜春 饰 勾践；2、马国祥 饰 伯嚭、焦鹏飞 饰 文种；3、马国祥 饰 伯嚭；4、王瀛政 饰 夫差、马博通 饰 伍员；5、曹馨月 饰 西施、王瀛政 饰 夫差；6、曹馨月 饰 西施、王晓睿 饰 旋波、王瀛政 饰 夫差；7、曹馨月 饰 西施；8、焦 ..."},{"id":"曲艺·戏曲-00082","type":"曲艺·戏曲","bio":"","locationName":"滨湖剧院","address":"环湖中路6号","lat":39.08397,"lng":117.17835,"publishedAt":"2024-02-17 10:09:00","year":2024,"retweets":0,"comments":0,"likes":10,"text":"2024.2.16天津滨湖剧院演出京剧《诗文会》"},{"id":"曲艺·戏曲-00083","type":"曲艺·戏曲","bio":"","locationName":"滨湖剧院","address":"环湖中路6号","lat":39.08397,"lng":117.17835,"publishedAt":"2023-02-05 02:27:00","year":2023,"retweets":0,"comments":0,"likes":19,"text":"开年大戏🎭郭德纲主演 传统京剧《包公》"},{"id":"曲艺·戏曲-00084","type":"曲艺·戏曲","bio":"愿有前程可奔赴，也有岁月可回首","locationName":"滨湖剧院","address":"环湖中路6号","lat":39.08397,"lng":117.17835,"publishedAt":"2023-12-29 01:21:00","year":2023,"retweets":0,"comments":0,"likes":0,"text":"演出篇🎩感谢我的戏搭子小飞的出现。今年我俩从兔年初五的关老爷戏<长坂坡.汉津口>，到一延再延的<群借华>，再到广东会馆的<击鼓骂曹>，我俩看了三出三国戏最后以一场经典的<珠帘寨>以及杜叔唱错词的<大探二>完美收官在这舞台上不同门类的戏剧交织上演，和京剧的表现 ..."},{"id":"曲艺·戏曲-00085","type":"曲艺·戏曲","bio":"旧学商量加邃密，新知培养转深沉","locationName":"滨湖剧院","address":"环湖中路6号","lat":39.08397,"lng":117.17835,"publishedAt":"2023-09-27 00:06:00","year":2023,"retweets":0,"comments":0,"likes":35,"text":"纪厉·一箭仇苏德贵 饰 史文恭预期非常高，竟依然超出了预期。看武戏四年多，最能点燃我、最让我兴奋的，其实还是演员的状态，不要是运动员，不要是话剧演员，是在京剧的重重程式与规范之下，在一举一动皆有法度的同时，依然有鲜明的、强烈的、扑面而来的个人风格。..."},{"id":"曲艺·戏曲-00086","type":"曲艺·戏曲","bio":"原“一粒沙看世界”","locationName":"滨湖剧院","address":"环湖中路6号","lat":39.08397,"lng":117.17835,"publishedAt":"2023-01-24 18:28:00","year":2023,"retweets":0,"comments":0,"likes":0,"text":"天津京剧院《长坂坡•汉津口》大年初三鸣锣开唱"},{"id":"曲艺·戏曲-00087","type":"曲艺·戏曲","bio":"","locationName":"滨湖剧院","address":"环湖中路6号","lat":39.08397,"lng":117.17835,"publishedAt":"2023-02-06 09:09:00","year":2023,"retweets":0,"comments":0,"likes":0,"text":"癸卯年正月十四 贰本包公蟒袍大开眼界 郭老师演包公 八贤王由25岁高龄阿陶宝宝饰演感谢超温柔的陶老板 郭老师辛苦了 那一跪我直接飙泪 对京剧是真爱"},{"id":"曲艺·戏曲-00088","type":"曲艺·戏曲","bio":"我有言来你是听","locationName":"滨湖剧院","address":"环湖中路6号","lat":39.08397,"lng":117.17835,"publishedAt":"2023-10-23 21:58:00","year":2023,"retweets":0,"comments":0,"likes":23,"text":"“名家合作系列演出”京剧名家名段演唱会随拍｜李莉 康万生 迟小秋 张慧芳 孟广禄 卢松 等"},{"id":"曲艺·戏曲-00089","type":"曲艺·戏曲","bio":"天津市高校京剧联盟发起人 京剧小生艺术爱好者","locationName":"滨湖剧院","address":"环湖中路6号","lat":39.08397,"lng":117.17835,"publishedAt":"2023-12-10 21:25:00","year":2023,"retweets":0,"comments":0,"likes":0,"text":"2023.12.3 天津滨湖剧院 成立五周年纪念专场京剧《群英会·借东风》后台扮戏饰 周瑜"},{"id":"曲艺·戏曲-00090","type":"曲艺·戏曲","bio":"满族人，中国民俗摄影协会会员、中国摄影著作权协会会员、石家庄市摄影家协会会员 兴趣爱好:摄影、旅行、画画、书法、看戏、集邮；","locationName":"滨湖剧院","address":"环湖中路6号","lat":39.08397,"lng":117.17835,"publishedAt":"2023-01-26 18:02:00","year":2023,"retweets":0,"comments":0,"likes":74,"text":"2023年里看的第一场戏王艳老师的京剧《穆桂英挂帅》"},{"id":"曲艺·戏曲-00091","type":"曲艺·戏曲","bio":"真诚勇敢永远万岁","locationName":"滨湖剧院","address":"环湖中路6号","lat":39.08397,"lng":117.17835,"publishedAt":"2023-01-12 15:16:00","year":2023,"retweets":0,"comments":0,"likes":0,"text":"去看老郭的京剧专场了，真的很8错！"},{"id":"曲艺·戏曲-00092","type":"曲艺·戏曲","bio":"Restarting…","locationName":"滨湖剧院","address":"环湖中路6号","lat":39.08397,"lng":117.17835,"publishedAt":"2023-04-14 23:06:00","year":2023,"retweets":0,"comments":0,"likes":11,"text":"春華秋實一甲子 薪火相傳六十年谭派名家王平舞台藝術生涯六十週年津门名家众星捧月《群英會·借東風·華容道》谭派掌门人谭孝曾先生现场助阵贺词 相识了擦肩而过N次的梁兄 及众多喜欢京剧 喜爱谭派艺术的朋友们 谭元寿先生在天有灵看到爱徒从艺六十周年定会很欣慰🙏 ..."},{"id":"曲艺·戏曲-00093","type":"曲艺·戏曲","bio":"","locationName":"滨湖剧院","address":"环湖中路6号","lat":39.08397,"lng":117.17835,"publishedAt":"2023-09-23 11:29:00","year":2023,"retweets":0,"comments":0,"likes":0,"text":"北京京剧院的韩巨明老师~“猛张飞”"},{"id":"曲艺·戏曲-00094","type":"曲艺·戏曲","bio":"","locationName":"滨湖剧院","address":"环湖中路6号","lat":39.08397,"lng":117.17835,"publishedAt":"2022-11-19 23:08:00","year":2022,"retweets":0,"comments":0,"likes":0,"text":"来姥爷单位后台画个小花脸，体验下我们的国粹京剧"},{"id":"曲艺·戏曲-00095","type":"曲艺·戏曲","bio":"原“一粒沙看世界”","locationName":"滨湖剧院","address":"环湖中路6号","lat":39.08397,"lng":117.17835,"publishedAt":"2023-04-01 23:04:00","year":2023,"retweets":0,"comments":0,"likes":0,"text":"天津京剧院2023年4月1日《连环套》"},{"id":"曲艺·戏曲-00096","type":"曲艺·戏曲","bio":"","locationName":"滨湖剧院","address":"环湖中路6号","lat":39.08397,"lng":117.17835,"publishedAt":"2023-01-15 21:09:00","year":2023,"retweets":0,"comments":0,"likes":0,"text":"2023.1.9 京剧 回龙传"},{"id":"曲艺·戏曲-00097","type":"曲艺·戏曲","bio":"原“一粒沙看世界”","locationName":"滨湖剧院","address":"环湖中路6号","lat":39.08397,"lng":117.17835,"publishedAt":"2022-07-30 23:29:00","year":2022,"retweets":0,"comments":0,"likes":0,"text":"天津京剧团演出的《太真外传》，编排了册封杨贵妃、霓裳羽衣舞、赐浴华清池、逐出大明宫、长生殿乞巧、安禄山谋反、殒命马嵬坡、唐王游月宫等桥段。不愧是梅派传统作品，舞台华丽，唱腔优美，格调典雅，遗憾的是没能再现翠盘舞。"},{"id":"曲艺·戏曲-00098","type":"曲艺·戏曲","bio":"谁放弃谁是大笨蛋","locationName":"滨湖剧院","address":"环湖中路6号","lat":39.08397,"lng":117.17835,"publishedAt":"2023-08-26 19:10:00","year":2023,"retweets":0,"comments":0,"likes":12,"text":"23年第21场《赵氏孤儿》国家京剧院领衔，联合天津京剧院共同演绎。张建国的程婴，邓掰掰滴魏绛，特邀李祖铭操琴。想看这出戏很久了，今晚算如愿以偿。感谢朋友～"},{"id":"曲艺·戏曲-00099","type":"曲艺·戏曲","bio":"成立于2018年5月23日，是一个以“体验式演出”为主要活动方式的京剧艺术传习组织，立足天津，面向全国，为喜欢京剧的高校师生搭建专业的展示平台。","locationName":"滨湖剧院","address":"环湖中路6号","lat":39.08397,"lng":117.17835,"publishedAt":"2023-04-10 17:51:00","year":2023,"retweets":0,"comments":0,"likes":13,"text":"由天津市高校京剧联盟参与协办的京剧人 王平舞台艺术生涯六十周年系列演出首场剧目《群借华》将于4月12号在滨湖剧院上演这次活动从前期策划到文案撰稿再到装帧设计..."},{"id":"曲艺·戏曲-00100","type":"曲艺·戏曲","bio":"人生荒芜，美梦难寻。","locationName":"滨湖剧院","address":"环湖中路6号","lat":39.08397,"lng":117.17835,"publishedAt":"2023-12-02 00:49:00","year":2023,"retweets":0,"comments":0,"likes":0,"text":"陪老张看的第一场京剧…就那是真困呐"},{"id":"曲艺·戏曲-00101","type":"曲艺·戏曲","bio":"天津市高校京剧联盟发起人 京剧小生艺术爱好者","locationName":"滨湖剧院","address":"环湖中路6号","lat":39.08397,"lng":117.17835,"publishedAt":"2023-12-10 21:19:00","year":2023,"retweets":0,"comments":0,"likes":12,"text":"2023.12.3 天津滨湖剧院 成立五周年纪念专场京剧《群英会·借东风》剧照群英会·对火饰 周瑜"},{"id":"曲艺·戏曲-00102","type":"曲艺·戏曲","bio":"哈喽","locationName":"滨湖剧院","address":"环湖中路6号","lat":39.08397,"lng":117.17835,"publishedAt":"2022-07-01 22:43:00","year":2022,"retweets":0,"comments":0,"likes":0,"text":"天津京剧院 智取威虎山与著名京剧表演艺术家王平先生合影留念🙏🙏🙏"},{"id":"曲艺·戏曲-00103","type":"曲艺·戏曲","bio":"","locationName":"滨湖剧院","address":"环湖中路6号","lat":39.08397,"lng":117.17835,"publishedAt":"2023-09-22 20:58:00","year":2023,"retweets":0,"comments":0,"likes":0,"text":"上海京剧院 史敏老师 王玺龙先生抓帔！"},{"id":"曲艺·戏曲-00104","type":"曲艺·戏曲","bio":"天津市高校京剧联盟发起人 京剧小生艺术爱好者","locationName":"滨湖剧院","address":"环湖中路6号","lat":39.08397,"lng":117.17835,"publishedAt":"2023-12-10 21:15:00","year":2023,"retweets":0,"comments":0,"likes":0,"text":"2023.12.3 天津滨湖剧院 成立五周年纪念专场京剧《群英会·借东风》剧照群英会·大帐 饰 周瑜"},{"id":"曲艺·戏曲-00105","type":"曲艺·戏曲","bio":"你休执恋，请前行莫久延。","locationName":"滨湖剧院","address":"环湖中路6号","lat":39.08397,"lng":117.17835,"publishedAt":"2023-07-17 15:02:00","year":2023,"retweets":0,"comments":0,"likes":30,"text":"［芍药开牡丹放花红一片，艳阳天春光好百鸟声喧。］——23.07.16 京剧《四郎探母》京剧人王平从艺六十周年专场演出吕洋 饰 铁镜公主［吕洋老师真的非常非常棒真诚又努力的姐姐，当天演出生病了，坚持上台，业务水平也完全没有打折扣。返场的时候，姐姐说，自己从从艺开始就没有 ..."},{"id":"曲艺·戏曲-00106","type":"曲艺·戏曲","bio":"","locationName":"滨湖剧院","address":"环湖中路6号","lat":39.08397,"lng":117.17835,"publishedAt":"2023-09-22 20:42:00","year":2023,"retweets":0,"comments":0,"likes":0,"text":"陕西省京剧院艺术总监张强先生！[玫瑰][玫瑰][玫瑰]"},{"id":"曲艺·戏曲-00107","type":"曲艺·戏曲","bio":"谁放弃谁是大笨蛋","locationName":"滨湖剧院","address":"环湖中路6号","lat":39.08397,"lng":117.17835,"publishedAt":"2023-05-01 19:00:00","year":2023,"retweets":0,"comments":0,"likes":0,"text":"2023年第17场纪念厉慧良先生诞辰100周年专场《战宛城》大概是天津京剧院在津时隔十年再次演出这一出。“厉三代”黄齐峰领衔，追慕先贤，承志弘艺！"},{"id":"曲艺·戏曲-00108","type":"曲艺·戏曲","bio":"一个喜欢附庸风雅的人","locationName":"滨湖剧院","address":"环湖中路6号","lat":39.08397,"lng":117.17835,"publishedAt":"2023-04-13 01:23:00","year":2023,"retweets":0,"comments":0,"likes":0,"text":"【春华秋实一甲子，薪火相传六十年】盼了半年的演出，如约而至。看着这满台的角儿，真的是一种享受！可是看着他们逐渐老去，却又不禁感慨。60年，对于演员而言是近乎一辈子，对于京剧来说却只是一个时代缩影罢了。少年子弟江湖老，红粉佳人两鬓斑。再好的演员也终有迟暮的时候。这场演出可能也是他 ..."},{"id":"曲艺·戏曲-00109","type":"曲艺·戏曲","bio":"离开后，若有缘，再相见……","locationName":"滨湖剧院","address":"环湖中路6号","lat":39.08397,"lng":117.17835,"publishedAt":"2023-01-10 21:15:00","year":2023,"retweets":0,"comments":0,"likes":13,"text":"20230110天津滨湖剧院麒麟剧社京剧《怪侠欧阳德》"},{"id":"曲艺·戏曲-00110","type":"曲艺·戏曲","bio":"离开后，若有缘，再相见……","locationName":"滨湖剧院","address":"环湖中路6号","lat":39.08397,"lng":117.17835,"publishedAt":"2023-02-03 21:34:00","year":2023,"retweets":0,"comments":0,"likes":11,"text":"20230203天津滨湖剧院麒麟剧社京剧《包公》（头本）"},{"id":"曲艺·戏曲-00111","type":"曲艺·戏曲","bio":"满族人，中国民俗摄影协会会员、中国摄影著作权协会会员、石家庄市摄影家协会会员 兴趣爱好:摄影、旅行、画画、书法、看戏、集邮；","locationName":"滨湖剧院","address":"环湖中路6号","lat":39.08397,"lng":117.17835,"publishedAt":"2023-01-27 08:19:00","year":2023,"retweets":0,"comments":0,"likes":22,"text":"王艳～京剧《穆桂英挂帅》"},{"id":"曲艺·戏曲-00112","type":"曲艺·戏曲","bio":"成立于2018年5月23日，是一个以“体验式演出”为主要活动方式的京剧艺术传习组织，立足天津，面向全国，为喜欢京剧的高校师生搭建专业的展示平台。","locationName":"滨湖剧院","address":"环湖中路6号","lat":39.08397,"lng":117.17835,"publishedAt":"2022-07-17 08:09:00","year":2022,"retweets":0,"comments":0,"likes":0,"text":"京剧《上天台》剧照刘洋 饰 刘秀臧磊 饰 姚期阎珑 饰 郭妃赵志强 饰 姚刚20220716天津·滨湖剧院"},{"id":"曲艺·戏曲-00113","type":"曲艺·戏曲","bio":"离开后，若有缘，再相见……","locationName":"滨湖剧院","address":"环湖中路6号","lat":39.08397,"lng":117.17835,"publishedAt":"2023-02-04 20:31:00","year":2023,"retweets":0,"comments":0,"likes":0,"text":"20230204天津滨湖剧院麒麟剧社京剧《包公》（二本）"},{"id":"曲艺·戏曲-00114","type":"曲艺·戏曲","bio":"攝影愛好者。","locationName":"滨湖剧院","address":"环湖中路6号","lat":39.08397,"lng":117.17835,"publishedAt":"2023-10-24 20:07:00","year":2023,"retweets":0,"comments":0,"likes":0,"text":"天津看戏第3天，天津京剧院“名家合作系列演出”《大·探·二》；康万生康爷！！！"},{"id":"曲艺·戏曲-00115","type":"曲艺·戏曲","bio":"离开后，若有缘，再相见……","locationName":"滨湖剧院","address":"环湖中路6号","lat":39.08397,"lng":117.17835,"publishedAt":"2023-01-09 21:36:00","year":2023,"retweets":0,"comments":0,"likes":0,"text":"20230109天津滨湖剧院麒麟剧社京剧《回龙传》"},{"id":"曲艺·戏曲-00116","type":"曲艺·戏曲","bio":"攝影愛好者。","locationName":"滨湖剧院","address":"环湖中路6号","lat":39.08397,"lng":117.17835,"publishedAt":"2023-10-23 18:59:00","year":2023,"retweets":0,"comments":0,"likes":0,"text":"天津看戏第2天，天津京剧院“名家合作系列演出”《京剧名家名段演唱会》。"},{"id":"曲艺·戏曲-00117","type":"曲艺·戏曲","bio":"离开后，若有缘，再相见……","locationName":"滨湖剧院","address":"环湖中路6号","lat":39.08397,"lng":117.17835,"publishedAt":"2023-01-10 00:06:00","year":2023,"retweets":0,"comments":0,"likes":24,"text":"20230109天津滨湖剧院麒麟剧社京剧《回龙传》返场"},{"id":"曲艺·戏曲-00118","type":"曲艺·戏曲","bio":"","locationName":"滨湖剧院","address":"环湖中路6号","lat":39.08397,"lng":117.17835,"publishedAt":"2023-02-05 14:49:00","year":2023,"retweets":0,"comments":0,"likes":0,"text":"既然时间留不住，就留下一些美好的记忆吧 郭德纲 传统京剧《包公》头本"},{"id":"曲艺·戏曲-00119","type":"曲艺·戏曲","bio":"","locationName":"滨湖剧院","address":"环湖中路6号","lat":39.08397,"lng":117.17835,"publishedAt":"2023-05-01 19:40:00","year":2023,"retweets":0,"comments":0,"likes":0,"text":"天津京剧院《战宛城》"},{"id":"曲艺·戏曲-00120","type":"曲艺·戏曲","bio":"漫步杏坛与梨园。","locationName":"滨湖剧院","address":"环湖中路6号","lat":39.08397,"lng":117.17835,"publishedAt":"2023-01-27 08:16:00","year":2023,"retweets":0,"comments":0,"likes":0,"text":"京剧《穆桂英挂帅》谢幕20230126"},{"id":"曲艺·戏曲-00121","type":"曲艺·戏曲","bio":"离开后，若有缘，再相见……","locationName":"滨湖剧院","address":"环湖中路6号","lat":39.08397,"lng":117.17835,"publishedAt":"2023-02-05 00:56:00","year":2023,"retweets":0,"comments":0,"likes":0,"text":"20230204天津滨湖剧院麒麟剧社京剧《包公》（二本）返场"},{"id":"曲艺·戏曲-00122","type":"曲艺·戏曲","bio":"漫步杏坛与梨园。","locationName":"滨湖剧院","address":"环湖中路6号","lat":39.08397,"lng":117.17835,"publishedAt":"2022-07-03 00:26:00","year":2022,"retweets":0,"comments":0,"likes":0,"text":"京剧《智取威虎山》除夕夜全山寨灯火一片 选段 王平"},{"id":"曲艺·戏曲-00123","type":"曲艺·戏曲","bio":"盐于律己，甜以待人💕  出现在别人的世界里要像一份礼物呀🎁  每天快乐！永远积极！平凡生活记录者👏🏻","locationName":"滨湖剧院","address":"环湖中路6号","lat":39.08397,"lng":117.17835,"publishedAt":"2023-02-26 14:57:00","year":2023,"retweets":0,"comments":0,"likes":0,"text":"海涛 真的瘦好多！！！好萌好会演！！！三生PLUS 舞美效果绝了~一场集相声、小品、戏曲、说唱、杂技为一体的话剧体验~最后还get到本剧导演李唯贺 的合影和签名～导演又帅又会导！特别亲切！大家辛苦啦~完美结束2月份的观影季 ..."},{"id":"曲艺·戏曲-00124","type":"曲艺·戏曲","bio":"闲踏天门扫落花","locationName":"滨湖剧院","address":"环湖中路6号","lat":39.08397,"lng":117.17835,"publishedAt":"2023-04-01 22:31:00","year":2023,"retweets":0,"comments":0,"likes":17,"text":"20230401 天津京剧院 连环套 王嘉庆 黄齐峰 窦骞没有激光笔的剧场真好啊/专门退了上京的连环套来看"},{"id":"曲艺·戏曲-00125","type":"曲艺·戏曲","bio":"一个初级票儿及邵氏电影孤独的守望者","locationName":"滨湖剧院","address":"环湖中路6号","lat":39.08397,"lng":117.17835,"publishedAt":"2023-09-22 19:14:00","year":2023,"retweets":0,"comments":0,"likes":0,"text":"纪念武生名家厉慧良先生诞辰100周年系列演出，特由天津京剧院主办三天历派武生大会，由历先生亲传弟子，72岁高龄的苏德贵先生领衔主演“历八出”，特邀上海京剧院奚中路、史依弘、李军助演，精彩纷呈，不容错过"},{"id":"曲艺·戏曲-00126","type":"曲艺·戏曲","bio":"实事求是，知行合一；自己动手，丰衣足食","locationName":"滨湖剧院","address":"环湖中路6号","lat":39.08397,"lng":117.17835,"publishedAt":"2023-06-11 08:23:00","year":2023,"retweets":0,"comments":0,"likes":0,"text":"6月10日滨湖剧院，上海京剧院老生演员蓝天联袂天津京剧院演出赵氏孤儿。能够看的出来，蓝天真是卖了把子力气，尤其是十五年后的老程婴那个老味太对了！赵芳媛是真的好！嗓音高亮叫好不断。但是还是没有韩厥卖力，一脚把药匣子踩烂了。赵氏一门险灭于韩将军足下"},{"id":"曲艺·戏曲-00127","type":"曲艺·戏曲","bio":"IME  ","locationName":"滨湖剧院","address":"环湖中路6号","lat":39.08397,"lng":117.17835,"publishedAt":"2023-01-15 13:11:00","year":2023,"retweets":0,"comments":0,"likes":0,"text":"终于看见郭老师本尊了什么时候可以听一段现场的评书那就此生无憾啦不过郭老师京剧唱的真不错这嗓子绝了按郭老师的话说就是祖师爷赏饭吃与生俱来的羡慕不来的"},{"id":"曲艺·戏曲-00128","type":"曲艺·戏曲","bio":"成立于2018年5月23日，是一个以“体验式演出”为主要活动方式的京剧艺术传习组织，立足天津，面向全国，为喜欢京剧的高校师生搭建专业的展示平台。","locationName":"滨湖剧院","address":"环湖中路6号","lat":39.08397,"lng":117.17835,"publishedAt":"2022-07-13 11:07:00","year":2022,"retweets":0,"comments":0,"likes":0,"text":"昨晚，天津市高校京剧联盟在京剧院三楼排练厅响排『上天台』『监酒令』。"},{"id":"曲艺·戏曲-00129","type":"曲艺·戏曲","bio":"山河明月与我","locationName":"滨湖剧院","address":"环湖中路6号","lat":39.08397,"lng":117.17835,"publishedAt":"2023-04-14 19:03:00","year":2023,"retweets":0,"comments":0,"likes":0,"text":"谢瑶环 天津京剧院 天津滨湖剧院"},{"id":"曲艺·戏曲-00130","type":"曲艺·戏曲","bio":"文学 电影 足球 交友 是我的最爱 慷慨陈词而不附庸风雅 自由撰稿崇尚独善其身","locationName":"天津阳光100国际新城","address":"秀川路","lat":39.0696,"lng":117.14629,"publishedAt":"2024-05-07 10:13:00","year":2024,"retweets":0,"comments":0,"likes":0,"text":"这件事儿已经闹腾了好多天了，有位宝字辈儿前辈相声老演员，常宝丰，人称“常九爷”，那是他们相声窝子里的尊称，我们这些外行是绝不会喊他什么“九爷”的，这位常先生大概是耐不住寂寞，或者叫做顺应新时代，也开始在网上玩起了直播。但很快就引起了争议：有关曹云金的师承问题，被他红嘴 ..."},{"id":"曲艺·戏曲-00131","type":"曲艺·戏曲","bio":"文学 电影 足球 交友 是我的最爱 慷慨陈词而不附庸风雅 自由撰稿崇尚独善其身","locationName":"天津阳光100国际新城","address":"秀川路","lat":39.0696,"lng":117.14629,"publishedAt":"2024-05-09 12:42:00","year":2024,"retweets":0,"comments":0,"likes":0,"text":"此议何从谈起？田立禾老先生有什么“现象”?怎么就“相声界独有”了？这样的提法，实在有点混淆视听。论辈分，在相声圈子的宝字辈里，田老非常特殊，做为张寿臣一代宗师的关门弟子，他为了与几乎是同龄的文字辈同行和睦相处，主动拉平，称兄道弟，不失明智之举。另 ..."},{"id":"曲艺·戏曲-00132","type":"曲艺·戏曲","bio":"文学 电影 足球 交友 是我的最爱 慷慨陈词而不附庸风雅 自由撰稿崇尚独善其身","locationName":"天津阳光100国际新城","address":"秀川路","lat":39.0696,"lng":117.14629,"publishedAt":"2024-03-16 12:38:00","year":2024,"retweets":0,"comments":0,"likes":0,"text":"水旱码头，方言孤岛，相声窝子，曲艺之乡，戏剧终极大考舞台，外加煎饼果子……太多了太多了，不能再说了，已经露馅了！"},{"id":"曲艺·戏曲-00133","type":"曲艺·戏曲","bio":"文学 电影 足球 交友 是我的最爱 慷慨陈词而不附庸风雅 自由撰稿崇尚独善其身","locationName":"天津阳光100国际新城","address":"秀川路","lat":39.0696,"lng":117.14629,"publishedAt":"2024-02-13 10:23:00","year":2024,"retweets":0,"comments":0,"likes":0,"text":"提起这个话题，就不得不把“贾玲”的名字摆在上头。大胖丫头贾玲，没发胖的时候先是说相声，后来逐渐发胖，成了专职演小品，幽默不足，搞笑逆天，曾经在各档综艺节目中，疯扯的那叫一个难以形容！贾玲是艺人，或者叫娱乐明星。她的肥胖已经被观众认可，其实也成了她的自身名片。 ..."},{"id":"曲艺·戏曲-00134","type":"曲艺·戏曲","bio":"像中年啦飞驰","locationName":"家乐福(海光寺店)","address":"天津市南开区南京路302号","lat":39.12155,"lng":117.1728,"publishedAt":"2023-09-18 11:50:00","year":2023,"retweets":0,"comments":0,"likes":0,"text":"来天津这么多次。还没听到相声，总感觉缺点啥。想回深圳了，出差有点累了。"},{"id":"曲艺·戏曲-00135","type":"曲艺·戏曲","bio":"。","locationName":"长虹生态园","address":"红旗路145号(西市大街口)","lat":39.13285,"lng":117.14606,"publishedAt":"2024-05-01 00:52:00","year":2024,"retweets":0,"comments":0,"likes":0,"text":"纪念90的相声睡了80"},{"id":"曲艺·戏曲-00136","type":"曲艺·戏曲","bio":"天津市文化和旅游局官方微博，权威发布全市旅游信息，真诚为来自五湖四海的游客服务。天天乐道 津津有味 天津欢迎您！","locationName":"长虹生态园","address":"红旗路145号(西市大街口)","lat":39.13285,"lng":117.14606,"publishedAt":"2024-02-25 19:27:00","year":2024,"retweets":0,"comments":0,"likes":0,"text":"【长虹生态园欢乐闹元宵 游客纷至沓来】元宵佳节期间，本市南开区长虹生态园成为了一片热闹非凡的欢乐海洋。这里举办了一系列特别的活动，全天精彩演绎不断，吸引了大批市民游客前来打卡。相声、快板、古彩戏法、舞狮、国风舞蹈等表演精彩纷呈；津门蔡氏贡掸、曹氏纸样模、 ..."},{"id":"曲艺·戏曲-00137","type":"曲艺·戏曲","bio":"《天津日报》是中国共产党天津市委员会机关报。创刊于1949年1月17日。","locationName":"长虹生态园","address":"红旗路145号(西市大街口)","lat":39.13285,"lng":117.14606,"publishedAt":"2024-02-25 18:06:00","year":2024,"retweets":0,"comments":0,"likes":0,"text":"【长虹生态园欢乐闹元宵 游客纷至沓来】元宵佳节期间，本市南开区长虹生态园成为了一片热闹非凡的欢乐海洋。这里举办了一系列特别的活动，全天精彩演绎不断，吸引了大批市民游客前来打卡。相声、快板、古彩戏法、舞狮、国风舞蹈等表演精彩纷呈；津门蔡氏贡掸、曹氏纸样模、马二烧鸡、林氏糖画等非物质 ..."},{"id":"曲艺·戏曲-00138","type":"曲艺·戏曲","bio":"京剧、河北梆子戏迷","locationName":"长虹生态园","address":"红旗路145号(西市大街口)","lat":39.13285,"lng":117.14606,"publishedAt":"2023-08-26 13:07:00","year":2023,"retweets":0,"comments":0,"likes":0,"text":"打卡长虹公园京剧社，来着了！"},{"id":"曲艺·戏曲-00139","type":"曲艺·戏曲","bio":"遵循本心、回归清朗，人间有味是清欢。","locationName":"海光寺","address":"天津市南开区","lat":39.11992,"lng":117.16576,"publishedAt":"2022-02-01 16:23:00","year":2022,"retweets":0,"comments":0,"likes":0,"text":"今儿个是大年初一，央视戏曲频道19：30将播出“2022春节戏曲晚会”。天津评剧院曾绍娟院长和爱徒齐梓路将在晚会上有精彩的表演！到时收看。"},{"id":"曲艺·戏曲-00140","type":"曲艺·戏曲","bio":"天津市文化和旅游局官方微博，权威发布全市旅游信息，真诚为来自五湖四海的游客服务。天天乐道 津津有味 天津欢迎您！","locationName":"天津动物园","address":"水上公园东路1号","lat":39.08147,"lng":117.15897,"publishedAt":"2024-06-03 15:38:00","year":2024,"retweets":0,"comments":0,"likes":0,"text":"天津动物园另类呼吁“禁止投喂”！饲养员都打上快板啦！（素材来源：天津广播、蓝网学员猴小仙）"},{"id":"曲艺·戏曲-00141","type":"曲艺·戏曲","bio":"风来听风,雨来听雨,人生百味,随意就好","locationName":"天津动物园","address":"水上公园东路1号","lat":39.08147,"lng":117.15897,"publishedAt":"2024-05-01 12:45:00","year":2024,"retweets":0,"comments":0,"likes":0,"text":"天气真好☁️今天动物都出来了，动物园这快板广播： 细细的挂面是毒药，您可别加餐。太押韵了，绝对是个rapper"},{"id":"曲艺·戏曲-00142","type":"曲艺·戏曲","bio":"Q8001149","locationName":"天津动物园","address":"水上公园东路1号","lat":39.08147,"lng":117.15897,"publishedAt":"2024-05-08 14:22:00","year":2024,"retweets":192,"comments":122,"likes":8713,"text":"天津动物园吃的真好真给我笑不活了，天津动物园你们这单口相声说的真不错天津动物园搞笑"},{"id":"曲艺·戏曲-00143","type":"曲艺·戏曲","bio":"🥰","locationName":"天津动物园","address":"水上公园东路1号","lat":39.08147,"lng":117.15897,"publishedAt":"2024-05-15 11:37:00","year":2024,"retweets":0,"comments":0,"likes":0,"text":"- 天下知津: 天津动物园熊山单口相声式投喂指南广播天津动物园喜乐 - 今日头条"},{"id":"曲艺·戏曲-00144","type":"曲艺·戏曲","bio":"","locationName":"天津动物园","address":"水上公园东路1号","lat":39.08147,"lng":117.15897,"publishedAt":"2024-05-11 16:51:00","year":2024,"retweets":0,"comments":0,"likes":0,"text":"天津的大熊猫也会讲相声吧"},{"id":"曲艺·戏曲-00145","type":"曲艺·戏曲","bio":"","locationName":"天津动物园","address":"水上公园东路1号","lat":39.08147,"lng":117.15897,"publishedAt":"2024-05-11 16:51:00","year":2024,"retweets":0,"comments":0,"likes":0,"text":"天津的大熊猫也会讲相声吧"},{"id":"曲艺·戏曲-00146","type":"曲艺·戏曲","bio":"","locationName":"天津动物园","address":"水上公园东路1号","lat":39.08147,"lng":117.15897,"publishedAt":"2024-05-11 16:51:00","year":2024,"retweets":0,"comments":0,"likes":0,"text":"天津的大熊猫也会讲相声吧"},{"id":"曲艺·戏曲-00147","type":"曲艺·戏曲","bio":"","locationName":"天津动物园","address":"水上公园东路1号","lat":39.08147,"lng":117.15897,"publishedAt":"2024-05-11 16:51:00","year":2024,"retweets":0,"comments":0,"likes":0,"text":"天津的大熊猫也会讲相声吧"},{"id":"曲艺·戏曲-00148","type":"曲艺·戏曲","bio":"","locationName":"天津动物园","address":"水上公园东路1号","lat":39.08147,"lng":117.15897,"publishedAt":"2024-05-11 16:51:00","year":2024,"retweets":0,"comments":0,"likes":0,"text":"天津的大熊猫也会讲相声吧"},{"id":"曲艺·戏曲-00149","type":"曲艺·戏曲","bio":"","locationName":"天津动物园","address":"水上公园东路1号","lat":39.08147,"lng":117.15897,"publishedAt":"2024-05-11 16:51:00","year":2024,"retweets":0,"comments":0,"likes":0,"text":"天津的大熊猫也会讲相声吧"},{"id":"曲艺·戏曲-00150","type":"曲艺·戏曲","bio":"","locationName":"天津动物园","address":"水上公园东路1号","lat":39.08147,"lng":117.15897,"publishedAt":"2024-05-11 16:51:00","year":2024,"retweets":0,"comments":0,"likes":0,"text":"天津的大熊猫也会讲相声吧"},{"id":"曲艺·戏曲-00151","type":"曲艺·戏曲","bio":"","locationName":"天津动物园","address":"水上公园东路1号","lat":39.08147,"lng":117.15897,"publishedAt":"2024-05-11 16:51:00","year":2024,"retweets":0,"comments":0,"likes":0,"text":"天津的大熊猫也会讲相声吧"},{"id":"曲艺·戏曲-00152","type":"曲艺·戏曲","bio":"","locationName":"天津动物园","address":"水上公园东路1号","lat":39.08147,"lng":117.15897,"publishedAt":"2024-05-11 16:51:00","year":2024,"retweets":0,"comments":0,"likes":0,"text":"天津的大熊猫也会讲相声吧"},{"id":"曲艺·戏曲-00153","type":"曲艺·戏曲","bio":"Q8001149","locationName":"天津动物园","address":"水上公园东路1号","lat":39.08147,"lng":117.15897,"publishedAt":"2024-05-08 03:54:00","year":2024,"retweets":0,"comments":0,"likes":0,"text":"天津动物园吃的真好真给我笑不活了，天津动物园你们这单口相声说的真不错天津动物园搞笑"},{"id":"曲艺·戏曲-00154","type":"曲艺·戏曲","bio":"中国奥赛辽宁赛区冠军，王者之战亚军，中国好声音沈阳赛区第五名，最强大脑第六名，都不是我。","locationName":"天津动物园","address":"水上公园东路1号","lat":39.08147,"lng":117.15897,"publishedAt":"2024-05-01 12:15:00","year":2024,"retweets":0,"comments":0,"likes":123,"text":"天津动物园，单口相声式“投喂指南”这就是天津人的日常"},{"id":"曲艺·戏曲-00155","type":"曲艺·戏曲","bio":"喂 天津","locationName":"天津动物园","address":"水上公园东路1号","lat":39.08147,"lng":117.15897,"publishedAt":"2024-04-30 13:41:00","year":2024,"retweets":0,"comments":0,"likes":0,"text":"天津动物园熊山单口相声式投喂指南广播。"},{"id":"曲艺·戏曲-00156","type":"曲艺·戏曲","bio":"听说笑声是能传染的~","locationName":"天津动物园","address":"水上公园东路1号","lat":39.08147,"lng":117.15897,"publishedAt":"2024-05-03 02:46:00","year":2024,"retweets":0,"comments":0,"likes":0,"text":"近日，天津动物园熊山单口相声式投喂指南广播。网友：头一次在动物园听相声。"},{"id":"曲艺·戏曲-00157","type":"曲艺·戏曲","bio":"天津教育微博，倾听您的声音！","locationName":"天津动物园","address":"水上公园东路1号","lat":39.08147,"lng":117.15897,"publishedAt":"2024-05-08 16:39:00","year":2024,"retweets":0,"comments":0,"likes":0,"text":"【走进天津动物园 听饲养员讲述网红动物的故事】天津动物园始建于1975年，现饲养展出各类野生动物200余种2000余只。近日，“传说中的食梦兽——南美貘”“国宝‘八里台二姑奶奶’”“单口相声式投喂指导马来熊波比”等短视频，在天津日报视频号一经发布，迅速成为“爆款”，收获网友广泛好评。“五一” ..."},{"id":"曲艺·戏曲-00158","type":"曲艺·戏曲","bio":"津云，天津市移动新媒体总平台、总集成，一个有新闻理想、融合基因、生活服务、人工智能的媒体集群。","locationName":"天津动物园","address":"水上公园东路1号","lat":39.08147,"lng":117.15897,"publishedAt":"2024-05-08 12:00:00","year":2024,"retweets":0,"comments":0,"likes":0,"text":"【走进天津动物园 听饲养员讲述网红动物的故事】 天津动物园始建于1975年，现饲养展出各类野生动物200余种2000余只。近日，“传说中的食梦兽——南美貘”“国宝‘八里台二姑奶奶’”“单口相声式投喂指导马来熊波比”等短视频，在天津日报视频号一经发布，迅速成为“爆款”，收获网友广泛好 ..."},{"id":"曲艺·戏曲-00159","type":"曲艺·戏曲","bio":"天津交通广播 天津应急广播 天津公益广播 官方微博","locationName":"天津动物园","address":"水上公园东路1号","lat":39.08147,"lng":117.15897,"publishedAt":"2024-05-08 19:00:00","year":2024,"retweets":0,"comments":0,"likes":0,"text":"【走进天津动物园 听饲养员讲述网红动物的故事】天津动物园始建于1975年，现饲养展出各类野生动物200多种2000多只。近日，“传说中的食梦兽——南美貘”“国宝‘八里台二姑奶奶’”“单口相声式投喂指导马来熊波比”等短视频迅速成为“爆款”，收获网友广泛好评。“五一”假期，天津动物园迎来客流高峰 ..."},{"id":"曲艺·戏曲-00160","type":"曲艺·戏曲","bio":"一直想养一只别人家的狗子，打杂关怀看宝样样会！","locationName":"天津动物园","address":"水上公园东路1号","lat":39.08147,"lng":117.15897,"publishedAt":"2024-05-03 17:34:00","year":2024,"retweets":0,"comments":0,"likes":0,"text":"游客在投喂挂面，园区广播快板喊话，提醒游客爱护动物"},{"id":"曲艺·戏曲-00161","type":"曲艺·戏曲","bio":"请关注我们的官方微信【凤凰网视频】解锁更多的精彩内容。你今天真好看——好看是现场，好看是多元，是身临其境，是体验的延伸，是不一样的生活。但是，凤凰视频一万种好看，不如你好看。","locationName":"天津动物园","address":"水上公园东路1号","lat":39.08147,"lng":117.15897,"publishedAt":"2024-05-04 15:14:00","year":2024,"retweets":0,"comments":0,"likes":34,"text":"【 挂面塞进去，没有猴会做】五一假期，天津动物园游客如织，猴山成投喂“重灾区”，游客甚至给猴子投喂生挂面。饲养员喊话：没有动物吃挂面、没有动物会抽烟，以此呼吁游客不要投喂动物。由于管理员相声式的口音，此片段被网友拍下广泛传播。"},{"id":"曲艺·戏曲-00162","type":"曲艺·戏曲","bio":"每天持续更新全网最新鲜的事物，喜欢就留个关注吆","locationName":"天津动物园","address":"水上公园东路1号","lat":39.08147,"lng":117.15897,"publishedAt":"2024-05-02 12:20:00","year":2024,"retweets":0,"comments":0,"likes":0,"text":"天津动物园粉丝“新作品”单口相声式投喂指导“三文鱼都是挪威冰岛瑞典的”网友表示:能不能让熊投喂一下我"},{"id":"曲艺·戏曲-00163","type":"曲艺·戏曲","bio":"以前叫扛大包的，现在叫包袱搬运工。","locationName":"天津动物园","address":"水上公园东路1号","lat":39.08147,"lng":117.15897,"publishedAt":"2024-04-04 16:47:00","year":2024,"retweets":18,"comments":14,"likes":69,"text":"动物园里最好看的是快板有这二位在，买了天津动物园门票不看动物都值票钱"},{"id":"曲艺·戏曲-00164","type":"曲艺·戏曲","bio":"长相思兮长相忆，短相思兮无穷极， 早知如此绊人心，何如当初莫相识。","locationName":"天津中医药大学第一附属医院北院","address":"鞍山西道314号","lat":39.11439,"lng":117.15807,"publishedAt":"2022-09-17 10:02:00","year":2022,"retweets":0,"comments":0,"likes":0,"text":"该出院了，终于解脱了，针灸一共扎了220针，输液扎了12次，哎，还有一系列的理疗，终于熬出来了。这枯燥乏味的住院生活结束了，这无味的日子中也有乐趣，同病房的两位大爷，一个经常逗我，一个经常给我讲为人处世，教育孩子，还有各种大道理，这两位大爷在一起也是一对活宝，两位二老一说话就跟说相声 ..."},{"id":"曲艺·戏曲-00165","type":"曲艺·戏曲","bio":"越来越任性是因为爱得太深。越来越沉默是因为伤得太痛。越来越礼貌是因为失望透顶。 ​​​","locationName":"天津迎宾馆6号楼","address":"马场道335号天津迎宾馆","lat":39.09284,"lng":117.18867,"publishedAt":"2024-04-05 22:29:00","year":2024,"retweets":0,"comments":0,"likes":0,"text":"第一次住国有宾馆 环境确实很好很气派 就是装修设施不够现代  天津一日游：📍博物馆了解一段天津历史和耀世奇珍📍美术馆赏几位大家画作📍五大道看海棠花盛开 📍名流茶馆听几段相声乐呵"},{"id":"曲艺·戏曲-00166","type":"曲艺·戏曲","bio":"欲戴皇冠 必承其重👑","locationName":"周恩来邓颖超纪念馆","address":"水上公园西路9号(周邓纪念馆地铁站B口步行60米)","lat":39.09307,"lng":117.15867,"publishedAt":"2023-02-10 16:07:00","year":2023,"retweets":0,"comments":0,"likes":0,"text":"相声戏法之地"},{"id":"曲艺·戏曲-00167","type":"曲艺·戏曲","bio":"莫愁千里路 自有到来风","locationName":"大铁勺酒楼","address":"华苑路57号","lat":39.07556,"lng":117.13753,"publishedAt":"2024-03-19 00:27:00","year":2024,"retweets":0,"comments":0,"likes":0,"text":"天津这咸甜重口的菜适合多点儿人来吃，大铁勺天津打卡没嘛想好的餐厅就去这地儿准没错，当然了昂，话又嗦回来，麻酱爱好者钟爱老天津水爆肚。路上碰到的阿姨伯伯爷爷奶奶，讲话跟说相声一样，甭管多大年纪，开口就是“姐姐”，说人各路也叫各色，听司机师傅聊天比听相声还逗乐。天津适合溜达转转CityW ..."},{"id":"曲艺·戏曲-00168","type":"曲艺·戏曲","bio":"抓住事物的根本，阐扬彻底的理论。","locationName":"南开大学经济学院","address":"天津市南开区卫津路94号南开大学经济学院912室","lat":39.10223,"lng":117.15613,"publishedAt":"2024-03-25 10:32:00","year":2024,"retweets":0,"comments":0,"likes":0,"text":"2024年第5期《红旗文稿》刊发南开大学经济学院教授、中国人口学会副会长原新的文章《准确把握新时代人口发展战略》。内容提要：党的十八大以来，以习近平同志为核心的党中央高度重视人口问题，根据我国人口发展变化形势，作出适时调整完善生育政策、促进人口长期均衡发展的重大决策，各项工作取得显著 ..."},{"id":"曲艺·戏曲-00169","type":"曲艺·戏曲","bio":"","locationName":"景园里","address":"密云一支路05西北方向140米","lat":39.1268,"lng":117.10751,"publishedAt":"2022-01-08 16:58:00","year":2022,"retweets":0,"comments":0,"likes":0,"text":"岁数大了，听京剧和小时候的感觉不一样了，感觉很好听"},{"id":"曲艺·戏曲-00170","type":"曲艺·戏曲","bio":"悦读家：南开区白堤路美湖里7号楼底商                                            籍物寻:  滨海高新区华苑产业区智慧山北塔101","locationName":"悦读家","address":"美湖里7号底商","lat":39.11203,"lng":117.15016,"publishedAt":"2022-05-06 14:12:00","year":2022,"retweets":0,"comments":0,"likes":0,"text":"京剧确实“粹〞，代表了近两千年中国古老传统的哲学美学成果，而京剧又确实有 “渣”，两百三十年的京剧史，也沉淀着厚厚的、陈腐的农耕时代文明的糟粕。京刷作为国粹无可争议，其中之国渣也无可回避，关键我们不要像翻烧饼似的，总是从一个极端翻到另一个极端，那结果就是烙成了两面焦，烙煳了。— ..."},{"id":"曲艺·戏曲-00171","type":"曲艺·戏曲","bio":"Everything's gonna be alright.","locationName":"西湖道","address":"天津万维公寓","lat":39.12648,"lng":117.13291,"publishedAt":"2024-02-21 00:24:00","year":2024,"retweets":0,"comments":0,"likes":0,"text":"在有风的午后去人民公园听了酣畅淋漓的相声下了出租之后 迎面而来的是繁华的滨江道夜景在飘雪的晚上和很久没见的老朋友们一起在异乡重聚是非常非常美好的一天"},{"id":"曲艺·戏曲-00172","type":"曲艺·戏曲","bio":"","locationName":"大铁勺酒楼","address":"阜盛道1号永旺购物中心天津中北店2层260","lat":39.14173,"lng":117.08495,"publishedAt":"2024-05-05 20:07:00","year":2024,"retweets":0,"comments":0,"likes":0,"text":"牛肉牛杂火锅和相声很OK🥰🥰其他各方面不是很OK🤬🤬"},{"id":"曲艺·戏曲-00173","type":"曲艺·戏曲","bio":"顺风不浪，逆风不怂，穿上BCD，背上气瓶，海底两万里……","locationName":"天津体育中心","address":"河西区宾水西道(凌宾路口)","lat":39.06848,"lng":117.16602,"publishedAt":"2023-10-21 23:22:00","year":2023,"retweets":0,"comments":0,"likes":0,"text":"上周六，在郑州唱了豫剧这周六，在天津说了快板等后面，哈尔滨，杭州，苏州，广州……不唱，二人转，弹词，评弹，粤剧……不合适吧"},{"id":"曲艺·戏曲-00174","type":"曲艺·戏曲","bio":"在校学生，喜爱交朋友，爱玩微博的朋友可以互粉哦！","locationName":"林苑北里社区","address":"园荫道与苑中路交叉口东正西方向200米","lat":39.08881,"lng":117.13417,"publishedAt":"2023-12-06 15:10:00","year":2023,"retweets":0,"comments":0,"likes":0,"text":"我们知道德云社有个相声演员叫朱云峰，艺名“烧饼”。有一回德云社举办了一次美食活动，让大家去品尝各自带来的美食，有带龙虾尾的，有带鲍鱼的，有带螃蟹的，五花八门的都有。小岳岳从外面带来一大盘的热腾腾的吊炉烧饼，放在桌子上。郭老师说“呦，小岳岳把烧饼都带来了”，恰巧朱云峰刚演出回来，听 ..."},{"id":"曲艺·戏曲-00175","type":"曲艺·戏曲","bio":"独特视角看世界","locationName":"天津中学","address":"中孚路41","lat":39.08269,"lng":117.12353,"publishedAt":"2024-06-07 11:19:00","year":2024,"retweets":0,"comments":0,"likes":22,"text":"【】6月7日，2024年高考第一天，在天津市天津中学考点前，警察“拜拜”用一段天津快板祝福考生旗开得胜，金榜题名。教育部数据显示，今年全国高考报名人数1342万人，比2023年增加51万人。天津市2023年报名6.9万人，今年报名人数有所增加。全市设有16个考区、78 ..."},{"id":"曲艺·戏曲-00176","type":"曲艺·戏曲","bio":"希望自己每天美美的，爱琢磨，喜幸福，望康健，保平安。","locationName":"天津中学","address":"中孚路41","lat":39.08269,"lng":117.12353,"publishedAt":"2024-01-20 11:26:00","year":2024,"retweets":0,"comments":0,"likes":0,"text":"清清楚楚，明明白白，就差一个你！想去山西看皇城相府，柳宗元家，谁还在？见面不相识，未见先闻声，相不如声。——相声相声在天津，哪里有你们？我也在。..."},{"id":"曲艺·戏曲-00177","type":"曲艺·戏曲","bio":"","locationName":"海泰绿色产业基地","address":"海泰发展六道6号","lat":39.07642,"lng":117.09154,"publishedAt":"2024-05-31 08:58:00","year":2024,"retweets":0,"comments":0,"likes":0,"text":"今年相声泰斗马三立诞辰110周年"},{"id":"曲艺·戏曲-00178","type":"曲艺·戏曲","bio":"小🐎爱干正经事","locationName":"居华里","address":"华苑街与宾水西道交口","lat":39.07757,"lng":117.13793,"publishedAt":"2023-04-29 09:39:00","year":2023,"retweets":0,"comments":0,"likes":0,"text":"果然大俗治大雅大爷：著名相声艺术家李XX去世了大妈：著名啥呀 肚子里就那点墨水"},{"id":"曲艺·戏曲-00179","type":"曲艺·戏曲","bio":"天津上空的魔力笑声 周一到周六18:00—19:00 短视频平台\"哏都穆三火\"直播 欢迎大家哦❤️","locationName":"天津广播电视国际新闻中心","address":"电台道19号天宇大酒店","lat":39.10771,"lng":117.17589,"publishedAt":"2022-03-08 16:02:00","year":2022,"retweets":0,"comments":0,"likes":16,"text":"节日快乐相声广播女神节福利广播大厦里的小姐姐们快都来啊"},{"id":"曲艺·戏曲-00180","type":"曲艺·戏曲","bio":"自适其适","locationName":"程华里","address":"秀川路","lat":39.07099,"lng":117.14061,"publishedAt":"2022-04-21 21:03:00","year":2022,"retweets":0,"comments":0,"likes":0,"text":"许久不听郭德纲相声了，记得上学住宿舍那会儿， 晚上基本都是听着老郭入睡的。尤其是单口儿反复听了好多遍，几乎到了听了上句就知道下句的地步。定场诗也能背下来好几首，记得有一首是这么说的:守法朝朝忧闷，强梁夜夜欢歌。损人利己骑马骡，正直公平挨饿。修桥补路瞎眼，杀人放火的儿多。我到西天 ..."},{"id":"曲艺·戏曲-00181","type":"曲艺·戏曲","bio":"菜狗","locationName":"南开大学东方艺术大楼","address":"天津卫津路94号南开大学大中路","lat":39.10177,"lng":117.16678,"publishedAt":"2024-06-11 02:58:00","year":2024,"retweets":0,"comments":0,"likes":0,"text":"京剧小学生"},{"id":"曲艺·戏曲-00182","type":"曲艺·戏曲","bio":"不帮转微博，也不要叫我点赞，一切看我心情，我乐意，我高兴，自然会转发或者点赞，希望理解，更多精彩，请看推特：Linxiangnan","locationName":"红旗剧院","address":"红旗路376号","lat":39.10087,"lng":117.14261,"publishedAt":"2024-05-02 19:19:00","year":2024,"retweets":0,"comments":0,"likes":0,"text":"第一次正式的看实景京剧，年纪越大越喜欢这种传统文化"},{"id":"曲艺·戏曲-00183","type":"曲艺·戏曲","bio":"当我和世界初相见，当我曾经是少年。","locationName":"红旗剧院","address":"红旗路376号","lat":39.10087,"lng":117.14261,"publishedAt":"2023-09-09 22:34:00","year":2023,"retweets":0,"comments":0,"likes":0,"text":"欣赏一下评剧。"},{"id":"曲艺·戏曲-00184","type":"曲艺·戏曲","bio":"终朝如醉还如病，苦依熏笼坐到明。","locationName":"红旗剧院","address":"红旗路376号","lat":39.10087,"lng":117.14261,"publishedAt":"2023-05-02 13:51:00","year":2023,"retweets":0,"comments":0,"likes":0,"text":"完成五分之三。解锁了一个新剧院，也是第一次刷现场评剧。（后边的五分之二也都是评剧。）天津戏迷跟演员关系真好，开演前好几位老观众都去乐池边儿跟演奏员聊家常了。（这两天刷现场还是觉得戏迷群体有点儿缺乏活力，大部分观众都是老年人，这还是在天津，其他地方估计年轻戏迷更少了。）  ..."},{"id":"曲艺·戏曲-00185","type":"曲艺·戏曲","bio":"Have a good time ！","locationName":"红旗剧院","address":"红旗路376号","lat":39.10087,"lng":117.14261,"publishedAt":"2024-01-01 19:08:00","year":2024,"retweets":0,"comments":0,"likes":0,"text":"听民乐音乐会每次都能获得100%的沉浸快乐，打击乐手甚至和上次在曹禺剧院的是同一个人，打鼓时候全身都在起劲儿哈哈哈！中国大鼓真适合新年，民族DNA又动了！二胡姐姐也太飒了，同样的赛马都能听出技艺高超了！继小学之后第一次来新装修的红旗剧院，坐在一楼最后一排看音乐会 ..."},{"id":"曲艺·戏曲-00186","type":"曲艺·戏曲","bio":"","locationName":"红旗剧院","address":"红旗路376号","lat":39.10087,"lng":117.14261,"publishedAt":"2023-05-02 19:23:00","year":2023,"retweets":0,"comments":0,"likes":0,"text":"评剧《拜月记》"},{"id":"曲艺·戏曲-00187","type":"曲艺·戏曲","bio":"","locationName":"红旗剧院","address":"红旗路376号","lat":39.10087,"lng":117.14261,"publishedAt":"2023-05-03 14:22:00","year":2023,"retweets":0,"comments":0,"likes":0,"text":"评剧《杜十娘》"},{"id":"曲艺·戏曲-00188","type":"曲艺·戏曲","bio":"官微 hongliyuyulvliyugw  两位演员、导演、编剧 天津快板业余爱好者  代表作： 影视剧《福星盈门》《欢喜盈门》《一个都不能落下》 话剧《风华绝代》","locationName":"天津人民艺术剧院实验剧场","address":"平山道43号","lat":39.09635,"lng":117.17661,"publishedAt":"2024-05-20 19:09:00","year":2024,"retweets":0,"comments":0,"likes":23,"text":"天津快板评 鲤鱼卖挂票5月31日至6月9日，来天津人民艺术剧院实验剧场，看红鲤鱼与绿鲤鱼出品的喜剧《脱单盲盒》！"},{"id":"曲艺·戏曲-00189","type":"曲艺·戏曲","bio":"记录生活.","locationName":"真素诚总店","address":"西湖里13号楼底商","lat":39.11787,"lng":117.16219,"publishedAt":"2023-04-07 17:58:00","year":2023,"retweets":0,"comments":0,"likes":0,"text":"每次来天津就有感悟难怪天津能整出快板因为他们可以不断输出不像我们东北说一会歇一会只能整小品"},{"id":"曲艺·戏曲-00190","type":"曲艺·戏曲","bio":"想去目黑川看樱花","locationName":"天津站火车站","address":"新纬路1号","lat":39.13495,"lng":117.20381,"publishedAt":"2023-10-02 11:14:00","year":2023,"retweets":0,"comments":0,"likes":0,"text":"天津大爷一早就开始跟我们说相声我问哪里有煎饼果子大爷说你要吃正宗的还是不正宗的我：我们当然要吃正宗的大爷：正宗的没有，不正宗的前面路口有那么，天津再见啦👋"},{"id":"曲艺·戏曲-00191","type":"曲艺·戏曲","bio":"生命的意义在于过程！过程磨炼自己！","locationName":"天津站火车站","address":"新纬路1号","lat":39.13495,"lng":117.20381,"publishedAt":"2023-10-01 07:06:00","year":2023,"retweets":0,"comments":0,"likes":0,"text":"补游记:2023年9月27日，晚上4个小时天津站附近游了一下！没想到天津也值得好好游一游。弘一法师的故居下班了，下次一定来看看。古文化街小吃相声特产街。海河边晚上很热闹！下次要游游船。传统天津煎饼果子没有土豆丝，一般般！天津包子还可以！狗不理包子换主人了，大部分是速冻的！  ..."},{"id":"曲艺·戏曲-00192","type":"曲艺·戏曲","bio":"钱来钱来","locationName":"天津站火车站","address":"新纬路1号","lat":39.13495,"lng":117.20381,"publishedAt":"2024-02-12 19:47:00","year":2024,"retweets":0,"comments":0,"likes":0,"text":"都说云南人骑大象养孔雀 山西人喝醋 内蒙人家里有个专门的水龙头接牛奶 这些都是刻板印象 但是天津人是真的都会说相声"},{"id":"曲艺·戏曲-00193","type":"曲艺·戏曲","bio":"身已堕落，但心还向着天堂…我是从地狱归来的堕天使！背负着悲伤与罪恶","locationName":"紫金南里","address":"紫金山路35号西南方向150米","lat":39.08551,"lng":117.18231,"publishedAt":"2022-01-02 16:20:00","year":2022,"retweets":0,"comments":0,"likes":0,"text":"忘记发微博了，真的算是现代军武机甲化中的清流天花板。别跟我吹什么隔壁那个主战坦克，那个变形完了是京剧人物的我看完笑不活了！"},{"id":"曲艺·戏曲-00194","type":"曲艺·戏曲","bio":"人生有三种境界，第一层：物质世界、第二层：精神世界、第三层：宗教世界，我的朋友，请问您在哪一层","locationName":"咸阳北里","address":"嘉陵道47号附近","lat":39.1246,"lng":117.13391,"publishedAt":"2024-02-24 07:40:00","year":2024,"retweets":0,"comments":0,"likes":0,"text":"21号，在中华剧院，听郭老师京剧《宋士杰》"},{"id":"曲艺·戏曲-00195","type":"曲艺·戏曲","bio":"天津国家自主创新示范区","locationName":"智慧山","address":"天津高新区华苑产业区工华道与桂苑路交口(工华道1号)","lat":39.09172,"lng":117.11516,"publishedAt":"2024-06-04 14:25:00","year":2024,"retweets":0,"comments":0,"likes":0,"text":"【舞蹈、魔术、相声……“高新印象”温暖民生行邀您“粽”享一“夏”】艾叶香，麦浪黄。“粽”夏之时，高新区邀您观看文化演出，开启快乐夏天。2024年6月8日19:30，高新区社发局在天开华苑园智慧山飞鸟剧场（开华道20号智慧山艺术中心二楼），举办“艾香粽团 岁阔 ..."},{"id":"曲艺·戏曲-00196","type":"曲艺·戏曲","bio":"🐧：3586824229","locationName":"红医里","address":"长实道32号附近","lat":39.09635,"lng":117.14487,"publishedAt":"2023-08-18 10:38:00","year":2023,"retweets":0,"comments":0,"likes":0,"text":"没有对比就没有伤害：原来耍贱卖萌不叫相声自从曹云金在抖音开了直播之后，作为中国艺术宝库中的传统相声，仿佛一下焕发了生机，特别是何云伟来到了曹云金的直播间之后，一段《扒马褂》和《九芝闹公堂》播出之后，终于让广大听众知道，耍贱卖萌和插科打诨都不叫相声，这个背离了相声的本源，作为一门 ..."},{"id":"曲艺·戏曲-00197","type":"曲艺·戏曲","bio":"🐧：2650735403","locationName":"红医里","address":"长实道32号附近","lat":39.09635,"lng":117.14487,"publishedAt":"2023-08-17 10:16:00","year":2023,"retweets":0,"comments":0,"likes":0,"text":"郭麒麟为什么不论“云鹤九霄”的字呢？因为他是于谦的徒弟，于谦自然洒脱可不弄这些每一科什么字，他也不太爱收徒，收徒都耽误这位玩主潇洒了。“云鹤九霄，龙腾四海”是张文顺先生提的，当年还没有德云社，而是叫北京相声大会。张先生之所以起这八个字，其实是为了效仿京剧，让郭德纲以后收徒起艺名 ..."},{"id":"曲艺·戏曲-00198","type":"曲艺·戏曲","bio":"众友相声社演员，靳杨之徒，太平歌词非遗传承人佟守本徒孙 希望在这里给大家带来快乐😁","locationName":"中国北方曲艺学校","address":"天津市南开区水上公园街道居祥西里","lat":39.08823,"lng":117.17142,"publishedAt":"2022-11-11 22:48:00","year":2022,"retweets":0,"comments":0,"likes":0,"text":"感谢天津京剧院高航老师授课🙏"},{"id":"曲艺·戏曲-00199","type":"曲艺·戏曲","bio":"德不孤必有邻","locationName":"中国北方曲艺学校","address":"天津市南开区水上公园街道居祥西里","lat":39.08823,"lng":117.17142,"publishedAt":"2023-11-25 14:13:00","year":2023,"retweets":0,"comments":0,"likes":0,"text":"相声有新人"},{"id":"曲艺·戏曲-00200","type":"曲艺·戏曲","bio":"游民一枚！","locationName":"延生里","address":"南开四纬路19号(海光寺地铁站A口步行210米)","lat":39.12439,"lng":117.17024,"publishedAt":"2023-05-06 10:24:00","year":2023,"retweets":0,"comments":0,"likes":0,"text":"得闲饮茶听相声"},{"id":"曲艺·戏曲-00201","type":"曲艺·戏曲","bio":"高级美术师、高级工程师 综艺导演、原创音乐人 作品《天地正气》全网播放量六亿 《绿水青山美洞庭》洞庭湖保护区区歌 《敢笑太公不是仙》古风天花板","locationName":"熙汇广场1期","address":"南泥湾路与黄河道交叉口西南360米","lat":39.13522,"lng":117.11586,"publishedAt":"2022-01-26 11:27:00","year":2022,"retweets":0,"comments":0,"likes":0,"text":"公式相声博士的胡言乱语"},{"id":"曲艺·戏曲-00202","type":"曲艺·戏曲","bio":"精神病院在逃公主","locationName":"金融街中心汇金中心","address":"大沽北路与滨江道交口","lat":39.12791,"lng":117.19807,"publishedAt":"2023-08-22 22:22:00","year":2023,"retweets":0,"comments":0,"likes":0,"text":"P1天津的天气可真好啊P2瓷房子  上次只在外面拍了照  这回进去瞅了瞅 发现上回的选择是正确的P4五大道民园体育场！走进来就会觉得轻松愉悦轻盈  真的太喜欢这里啦！！P6溥仪故居  大别墅真的很不错！P7古文化街   走三步就能看到五个卖相声茶馆门票的P10茶馆相声的精彩程度超出我想象 ..."},{"id":"曲艺·戏曲-00203","type":"曲艺·戏曲","bio":"","locationName":"天津师范大学第三附属小学","address":"京华道70号","lat":39.03352,"lng":117.10296,"publishedAt":"2023-12-21 13:31:00","year":2023,"retweets":0,"comments":0,"likes":0,"text":"【曲艺大讲堂在天津师范大学第三附属小学开讲】 日前，由西青区承办的“津风沽韵曲艺情”曲艺大讲堂在天津师范大学第三附属小学开讲。本次活动的主讲嘉宾是天津市曲艺团副团长，国家二级演员夏炎。活动中，夏炎为西青区广大艺术教师普及了京韵大鼓的历史发展、音乐特色和身形作表等曲艺知识 ..."},{"id":"曲艺·戏曲-00204","type":"曲艺·戏曲","bio":"","locationName":"海津大桥","address":"天津市河西区","lat":39.07841,"lng":117.24932,"publishedAt":"2022-08-31 19:45:00","year":2022,"retweets":0,"comments":0,"likes":0,"text":"前一秒还在感叹天津人说话好像在讲相声，后一秒就发现的士师傅好像在带我绕路"},{"id":"曲艺·戏曲-00205","type":"曲艺·戏曲","bio":"🐧：3586824229","locationName":"河东区体育场","address":"津塘路52号","lat":39.1132,"lng":117.23299,"publishedAt":"2023-08-25 19:36:00","year":2023,"retweets":0,"comments":0,"likes":0,"text":"郭德纲在北京小有名气，回到天津办了一次专场，临时抓了高老板给他捧《西征梦》，高老板说“我没听过这段啊！”老郭说“你跟着我走就行”。那次的录音我听了，作为听了很多相声表示笑点已经高的我，第一反应是“居然有新出来的相声演员把我一个老听众都给说服气了！”那次高老板最棒的现挂：说到一半， ..."},{"id":"曲艺·戏曲-00206","type":"曲艺·戏曲","bio":"现在就是永远","locationName":"滨海国际机场","address":"津汉公路机场立交桥南侧","lat":39.12587,"lng":117.3556,"publishedAt":"2024-06-17 11:24:00","year":2024,"retweets":0,"comments":0,"likes":0,"text":"衣食住行样样通，个人照片一张🈚️陪客户出行主打一个一站式保姆，全方位服务，万能小张就是我相声初体验真的很棒，全程哈哈哈哈俩小时，有机会还想再听哦"},{"id":"曲艺·戏曲-00207","type":"曲艺·戏曲","bio":"","locationName":"滨海国际机场","address":"津汉公路机场立交桥南侧","lat":39.12587,"lng":117.3556,"publishedAt":"2024-05-21 19:34:00","year":2024,"retweets":0,"comments":0,"likes":0,"text":"第一次来天津 体验很好🍃骑着电动三轮沉浸式感受“City Walk ”“瓷房子”美到惊艳 天津相声值得一听👏物价便宜份量足 在成都4人餐都要加菜到这儿连两人餐都吃不完👍杰哥要在天津唱我还愿意来..."},{"id":"曲艺·戏曲-00208","type":"曲艺·戏曲","bio":"！！！","locationName":"滨海国际机场","address":"津汉公路机场立交桥南侧","lat":39.12587,"lng":117.3556,"publishedAt":"2024-05-20 20:25:00","year":2024,"retweets":0,"comments":0,"likes":0,"text":"回到了天津卫我的第二个家相声那个劲儿我超爱"},{"id":"曲艺·戏曲-00209","type":"曲艺·戏曲","bio":"享受人生，快乐第一","locationName":"滨海国际机场","address":"津汉公路机场立交桥南侧","lat":39.12587,"lng":117.3556,"publishedAt":"2024-05-05 17:22:00","year":2024,"retweets":0,"comments":0,"likes":47,"text":"五一假期以最后看一场相声收尾开心bye"},{"id":"曲艺·戏曲-00210","type":"曲艺·戏曲","bio":"日常记录屁大点事儿","locationName":"天津财经大学","address":"珠江道25号(财经大学地铁站C口步行340米)","lat":39.05881,"lng":117.27031,"publishedAt":"2023-05-28 20:30:00","year":2023,"retweets":0,"comments":0,"likes":0,"text":"是不是说相声的人都自带自信松弛幽默的气质呀（这么一大段真的不会忘词嘛）"},{"id":"曲艺·戏曲-00211","type":"曲艺·戏曲","bio":"日常记录屁大点事儿","locationName":"天津财经大学","address":"珠江道25号(财经大学地铁站C口步行340米)","lat":39.05881,"lng":117.27031,"publishedAt":"2023-05-28 20:30:00","year":2023,"retweets":0,"comments":0,"likes":0,"text":"是不是说相声的人都自带自信松弛幽默的气质呀（这么一大段真的不会忘词嘛）"},{"id":"曲艺·戏曲-00212","type":"曲艺·戏曲","bio":"日常记录屁大点事儿","locationName":"天津财经大学","address":"珠江道25号(财经大学地铁站C口步行340米)","lat":39.05881,"lng":117.27031,"publishedAt":"2023-05-28 20:30:00","year":2023,"retweets":0,"comments":0,"likes":0,"text":"是不是说相声的人都自带自信松弛幽默的气质呀（这么一大段真的不会忘词嘛）"},{"id":"曲艺·戏曲-00213","type":"曲艺·戏曲","bio":"日常记录屁大点事儿","locationName":"天津财经大学","address":"珠江道25号(财经大学地铁站C口步行340米)","lat":39.05881,"lng":117.27031,"publishedAt":"2023-05-28 20:30:00","year":2023,"retweets":0,"comments":0,"likes":0,"text":"是不是说相声的人都自带自信松弛幽默的气质呀（这么一大段真的不会忘词嘛）"},{"id":"曲艺·戏曲-00214","type":"曲艺·戏曲","bio":"日常记录屁大点事儿","locationName":"天津财经大学","address":"珠江道25号(财经大学地铁站C口步行340米)","lat":39.05881,"lng":117.27031,"publishedAt":"2023-05-28 20:30:00","year":2023,"retweets":0,"comments":0,"likes":0,"text":"是不是说相声的人都自带自信松弛幽默的气质呀（这么一大段真的不会忘词嘛）"},{"id":"曲艺·戏曲-00215","type":"曲艺·戏曲","bio":"日常记录屁大点事儿","locationName":"天津财经大学","address":"珠江道25号(财经大学地铁站C口步行340米)","lat":39.05881,"lng":117.27031,"publishedAt":"2023-05-28 20:30:00","year":2023,"retweets":0,"comments":0,"likes":0,"text":"是不是说相声的人都自带自信松弛幽默的气质呀（这么一大段真的不会忘词嘛）"},{"id":"曲艺·戏曲-00216","type":"曲艺·戏曲","bio":"醉后不知天在水，满船清梦压星河。","locationName":"天津滨海国际机场(出发)","address":"天津市东丽区金桥街道天津滨海国际机场(国际到达南一门)天津滨海国际机场T1航站楼","lat":39.12926,"lng":117.35269,"publishedAt":"2024-05-12 07:45:00","year":2024,"retweets":0,"comments":0,"likes":0,"text":"大都市还是可以，当地人还是非常有个性的，点点排外，问到特产说是都搁家吃，说话像讲相声遇到的网约车司机都非常暴躁狗不理包子性价比不是非常高最后就是，南方人真的谨慎体验搓澡，搓澡师傅一句有嘛孩羞的…击穿了我最后的羞耻心"},{"id":"曲艺·戏曲-00217","type":"曲艺·戏曲","bio":"升级打怪中的ENFP","locationName":"天津滨海国际机场(出发)","address":"天津市东丽区金桥街道天津滨海国际机场(国际到达南一门)天津滨海国际机场T1航站楼","lat":39.12926,"lng":117.35269,"publishedAt":"2024-05-23 16:10:00","year":2024,"retweets":0,"comments":0,"likes":0,"text":"天津人讲话也太有意思了 和听快板一样哈哈哈哈哈哈"},{"id":"曲艺·戏曲-00218","type":"曲艺·戏曲","bio":"好好生活。","locationName":"津湾广场","address":"解放北路48号(滨江道口)(津湾广场地铁站C口步行230米)","lat":39.13038,"lng":117.20335,"publishedAt":"2024-06-21 23:55:00","year":2024,"retweets":0,"comments":0,"likes":0,"text":"天津—九图放不下 随拍纯记录📝西北角的煎饼果子卷圈大饼卷一切 报吃蒸海鲜和家常小炒 还有天津刨冰 炫光光张学良故居的相声快板 有趣还有张园沉浸式解谜游戏 1.5h破解 最快海河游船从黄昏到夜晚 感受到了天津夜晚的魅力..."},{"id":"曲艺·戏曲-00219","type":"曲艺·戏曲","bio":"镇魂","locationName":"津湾广场","address":"解放北路48号(滨江道口)(津湾广场地铁站C口步行230米)","lat":39.13038,"lng":117.20335,"publishedAt":"2024-05-25 16:19:00","year":2024,"retweets":0,"comments":0,"likes":0,"text":"来上海了，和天津似的过会儿去看相声"},{"id":"曲艺·戏曲-00220","type":"曲艺·戏曲","bio":"Carry me home.","locationName":"津湾广场","address":"解放北路48号(滨江道口)(津湾广场地铁站C口步行230米)","lat":39.13038,"lng":117.20335,"publishedAt":"2024-04-26 21:21:00","year":2024,"retweets":0,"comments":0,"likes":0,"text":"白天室外气温直奔30度，实在是逛不下去。随便找了个相声馆杀杀时间，效果比预期的好，几个节目都老好玩儿了。🤩"},{"id":"曲艺·戏曲-00221","type":"曲艺·戏曲","bio":"修合无人见，存心有天知。自小喜好曲艺，耳染琴音丝弦，高台教化记问言，闲情逸致悠然。","locationName":"天津市第三中心医院","address":"津塘路83号","lat":39.10986,"lng":117.24237,"publishedAt":"2022-08-19 18:54:00","year":2022,"retweets":0,"comments":0,"likes":0,"text":"著名西河大鼓表演艺术家陈凤芸先生于2022年8月19号下午离世，陈先生是西河大鼓一面大旗，有幸现场多次观摩先生表演，陈先生唱腔委婉细腻、功架大气潇洒，特别在著名弦师贾庆华的辅助下，使她的艺术更加精湛。她的代表作有《九里山》、《砸鸾驾》、《怒杀谢吉武》等，并曾在电台录制过长篇大书《薛家 ..."},{"id":"曲艺·戏曲-00222","type":"曲艺·戏曲","bio":"","locationName":"万隆滨河新苑","address":"富民路33号","lat":39.08489,"lng":117.25248,"publishedAt":"2022-01-31 00:20:00","year":2022,"retweets":0,"comments":0,"likes":0,"text":"小品干不过辽宁春晚，相声干不过天津春晚，舞蹈干不过河南春晚，"},{"id":"曲艺·戏曲-00223","type":"曲艺·戏曲","bio":"写下所想、所思、所悟以省吾身。huayufeilong@sina.com","locationName":"民航宿舍蓝海苑","address":"天津市东丽区驯海路","lat":39.10468,"lng":117.34087,"publishedAt":"2022-01-31 22:38:00","year":2022,"retweets":0,"comments":0,"likes":0,"text":"让人期待又让人失望的春晚。今年的春晚太缺乏创新，虽然年年如此，但今年更甚。孙涛的小品真没去年的好。大张伟的歌曲太水了。贾冰的小品是之前小品改的。姜昆的相声太老了，真不适合春晚，一点都不好笑。真佩服现场的观众。"},{"id":"曲艺·戏曲-00224","type":"曲艺·戏曲","bio":"京京是个小太阳 浑身充满正能量😊","locationName":"南开大学附属医院","address":"微山路4号","lat":39.06069,"lng":117.25629,"publishedAt":"2022-06-19 11:51:00","year":2022,"retweets":0,"comments":0,"likes":0,"text":"做了个核酸发现 天津是一个有温度的城市天津人真的是太逗太可爱了 能揉碎了掰成八句话说的事绝对不一句话说明白 人人都是碎嘴子 人人都是好捧哏 是不是在天津未成年都要被抓去说相声呀"},{"id":"曲艺·戏曲-00225","type":"曲艺·戏曲","bio":"😁","locationName":"直沽(地铁站)","address":"5号线;9号线","lat":39.11003,"lng":117.22766,"publishedAt":"2022-07-15 07:55:00","year":2022,"retweets":0,"comments":0,"likes":0,"text":"“往车厢中间走，可凉快可较快啦”（请脑补天津话）天津人果真人人会说些相声的"},{"id":"曲艺·戏曲-00226","type":"曲艺·戏曲","bio":"你站在桥上看风景 看风景的人在楼上看你","locationName":"新城小区","address":"挂甲寺街解放南路古海道(土城地铁站D口步行360米)","lat":39.08814,"lng":117.23009,"publishedAt":"2022-03-12 20:36:00","year":2022,"retweets":0,"comments":0,"likes":0,"text":"两个多三个小时  一共六场相声很凑巧碰到了杨议先生👨逐渐走向搞笑女的路线  还被🈯️了开心到肾上腺素分泌失常哈哈哈哈哈"},{"id":"曲艺·戏曲-00227","type":"曲艺·戏曲","bio":"","locationName":"和睦北里","address":"中山门和睦北道45号","lat":39.10787,"lng":117.25808,"publishedAt":"2023-08-09 10:12:00","year":2023,"retweets":0,"comments":0,"likes":0,"text":"金霏、陈曦也和曹云金混在一起了，果然除了德云社，其他相声演员都是一家亲！记得前两年，金霏陈曦参加《欢乐喜剧人》时和郭德纲眉来眼去、打得火热呢！原来都是在演戏！"},{"id":"曲艺·戏曲-00228","type":"曲艺·戏曲","bio":"人好。 喜欢喝酒酒量小，着酒就醉。  喜欢下厨菜无味，都不想吃。  在家老伴训出门朋友糗。  经济没发展政治没进步。  文不会写文章武不敢上战场。","locationName":"芳馨园","address":"芳馨园5号楼底商正东方向150米","lat":39.12458,"lng":117.25836,"publishedAt":"2023-03-24 06:45:00","year":2023,"retweets":0,"comments":0,"likes":0,"text":"游津门（二十）天然呆老头张新缺自天津德云社看相声表演相声下午场，..."},{"id":"曲艺·戏曲-00229","type":"曲艺·戏曲","bio":"我对这个世界充满好奇 但对人不是","locationName":"光华剧院","address":"南北大街2号","lat":39.09586,"lng":117.23194,"publishedAt":"2023-12-23 17:29:00","year":2023,"retweets":0,"comments":0,"likes":0,"text":"天津·光华剧院·方寸艺享会·戏剧诗歌春日集第一次参加这种活动，一开始还傻乎乎不知道是干什么的，分享会一共分四个部分：1.领读，深度解析戏剧与诗歌的“血脉亲缘”邀请天津市作家协会会员杨蕾在现场用诗性的语言，解读中外戏剧的起源与诗歌不可分割的关联。2.天津京剧院优秀青年京剧演员万琳和闫文 ..."},{"id":"曲艺·戏曲-00230","type":"曲艺·戏曲","bio":"活泼 爱运动 阳光男孩","locationName":"核武器爆炸现场","address":"天津核武器爆炸现场","lat":39.06174,"lng":117.35816,"publishedAt":"2023-05-11 13:55:00","year":2023,"retweets":0,"comments":0,"likes":0,"text":"听天津出租车司机聊天，跟相声似的"},{"id":"曲艺·戏曲-00231","type":"曲艺·戏曲","bio":"网络虚幻我们真实","locationName":"天津海景花园酒店","address":"黑牛城道19号","lat":39.07828,"lng":117.23153,"publishedAt":"2023-12-04 22:34:00","year":2023,"retweets":0,"comments":0,"likes":0,"text":"天津一日游，海河边溜达，天津之眼，网红跳水点（桥上跳水已经被取消），老街，听相声，全齐活了。"},{"id":"曲艺·戏曲-00232","type":"曲艺·戏曲","bio":"天津电视台情景相声节目《相声大会》 官方博客：http://blog.sina.com.cn/tjtvxsdh","locationName":"中国民航大学礼堂","address":"天津市东丽区津北公路2898号(中国民航大学北区)","lat":39.11173,"lng":117.34274,"publishedAt":"2023-12-05 13:36:00","year":2023,"retweets":0,"comments":0,"likes":0,"text":"天视文艺频道《相声大会·斗笑津城》 高校巡演之中国民航大学站圆满收官，整场演出将由国内极具人气的青年相声演员和中国民航大学艺术团曲艺话剧团的同学们同台表演，和民航学子共同感受独属于哏儿都的快乐氛围。  ..."},{"id":"曲艺·戏曲-00233","type":"曲艺·戏曲","bio":"新晋宝爸一枚","locationName":"宫前东园(八纬路)","address":"大直沽五号路与六纬路交口","lat":39.10809,"lng":117.23487,"publishedAt":"2022-01-31 21:12:00","year":2022,"retweets":0,"comments":0,"likes":0,"text":"春晚小品，要是不夸张一点儿看着就倍儿累， 这劲儿感觉是不是老了…………一会儿看看\"深层次笑中带泪教育观众\"的好相声 各位过年快乐 看 这劲儿就倍儿棒👍🏻"},{"id":"曲艺·戏曲-00234","type":"曲艺·戏曲","bio":"","locationName":"滨河家园","address":"富民路33号","lat":39.0851,"lng":117.24819,"publishedAt":"2022-02-01 20:15:00","year":2022,"retweets":0,"comments":0,"likes":0,"text":"（大初一的）这是咋了9分钟丢球，还能输谁呢？国足加油还有时间还有机会，千万不能跟春晚的相声一样给国人添堵。"},{"id":"曲艺·戏曲-00235","type":"曲艺·戏曲","bio":"","locationName":"天津艺术职业学院(月牙河南路)","address":"娄山道27号","lat":39.09043,"lng":117.2687,"publishedAt":"2024-06-06 16:31:00","year":2024,"retweets":0,"comments":0,"likes":0,"text":"“桥”见海河 邂逅浪漫｜桥边音乐汇京剧专场，端午假期古文化街连演三天！“桥”见海河，邂逅浪漫——国粹芳华京剧专场演出将于端午节期间在南开区古文化街亲水平台上演，天津京剧院、天津市青年京剧团、天津艺术职业学院将为市民带来经典京剧唱段。天津市文化和旅游局视频号、 ..."},{"id":"曲艺·戏曲-00236","type":"曲艺·戏曲","bio":"以前叫扛大包的，现在叫包袱搬运工。","locationName":"天津艺术职业学院(月牙河南路)","address":"娄山道27号","lat":39.09043,"lng":117.2687,"publishedAt":"2024-05-22 22:47:00","year":2024,"retweets":18,"comments":0,"likes":48,"text":"来自张尧老师拍摄的一段视频，天津艺术职业学院，曲艺技能大赛中，一位学生自己制作道具表演含灯大鼓。"},{"id":"曲艺·戏曲-00237","type":"曲艺·戏曲","bio":"擅长津、鲁、冀、川风味菜品；天津市曲藝家恊會会员。传承劉派亰東大鼓。师承小刘文斌刘振东艺名刘书旭！60年怹向始祖刘文斌，学亰東大鼓书说唱艺术。","locationName":"文华里","address":"津塘公路83号正西方向200米","lat":39.10821,"lng":117.23991,"publishedAt":"2022-01-13 04:49:00","year":2022,"retweets":0,"comments":0,"likes":0,"text":"亰東大鼓小段儿《津门抗疫》作者刘学厚表的是九河下梢天津城津南岁末闹疫情感染最小才五岁全民迎战奥密克戎..."},{"id":"曲艺·戏曲-00238","type":"曲艺·戏曲","bio":"","locationName":"中山门北里","address":"和睦北道与和睦西道交口,互助道小学东校区旁","lat":39.10904,"lng":117.2561,"publishedAt":"2023-04-13 10:28:00","year":2023,"retweets":0,"comments":0,"likes":0,"text":"社区活动多多，欢迎来到中山门北里社区，京剧班，大爷大妈们退休生活快乐多多！"},{"id":"曲艺·戏曲-00239","type":"曲艺·戏曲","bio":"World observer","locationName":"天津市滨海国际机场T2航站楼","address":"天津市 天津市滨海国际机场","lat":39.12752,"lng":117.35257,"publishedAt":"2023-06-09 14:38:00","year":2023,"retweets":0,"comments":0,"likes":12,"text":"天津特种兵✈️面茶、熟梨糕、锅巴菜、糕干都没来得及吃绿豆面的煎饼果子好像没我想象中那么好吃耳朵眼炸糕有种扎实版麻球的感觉下次还要来玩 要来听相声"},{"id":"曲艺·戏曲-00240","type":"曲艺·戏曲","bio":"晒晒鸭梨，让心情阳光点","locationName":"天津滨海圣光皇冠假日酒店","address":"空港物流加工区中心大道55号","lat":39.14885,"lng":117.39331,"publishedAt":"2023-06-23 22:43:00","year":2023,"retweets":0,"comments":0,"likes":0,"text":"晚上听听相声🎭，吃吃饭，还有一个小亮点"},{"id":"曲艺·戏曲-00241","type":"曲艺·戏曲","bio":"","locationName":"天津大悦城","address":"南门外大街2-6号","lat":39.13395,"lng":117.17353,"publishedAt":"2024-06-17 22:00:00","year":2024,"retweets":0,"comments":0,"likes":0,"text":"每次来天津都会解锁新技能之第一次一个人听相声"},{"id":"曲艺·戏曲-00242","type":"曲艺·戏曲","bio":"但行好事，莫问前程。","locationName":"天津大悦城","address":"南门外大街2-6号","lat":39.13395,"lng":117.17353,"publishedAt":"2024-06-09 23:07:00","year":2024,"retweets":0,"comments":0,"likes":0,"text":"南方人来北方听相声😏"},{"id":"曲艺·戏曲-00243","type":"曲艺·戏曲","bio":"","locationName":"天津大悦城","address":"南门外大街2-6号","lat":39.13395,"lng":117.17353,"publishedAt":"2024-05-19 16:02:00","year":2024,"retweets":0,"comments":0,"likes":0,"text":"这家相声馆是不老到啊，俩小时多喝喝茶嗑个瓜子听个乐，又半个下午没了"},{"id":"曲艺·戏曲-00244","type":"曲艺·戏曲","bio":"舒服是留给死人的","locationName":"天津大悦城","address":"南门外大街2-6号","lat":39.13395,"lng":117.17353,"publishedAt":"2024-04-04 13:00:00","year":2024,"retweets":0,"comments":0,"likes":0,"text":"相声"},{"id":"曲艺·戏曲-00245","type":"曲艺·戏曲","bio":"我就像街灯 倾尽全力陪你共度黑暗  却在光明来临的时候被迫退出你的世界","locationName":"天津大悦城","address":"南门外大街2-6号","lat":39.13395,"lng":117.17353,"publishedAt":"2024-03-30 13:29:00","year":2024,"retweets":0,"comments":0,"likes":0,"text":"还是好多年前来天津看的相声"},{"id":"曲艺·戏曲-00246","type":"曲艺·戏曲","bio":"一个享受世界的人👣","locationName":"天津大悦城","address":"南门外大街2-6号","lat":39.13395,"lng":117.17353,"publishedAt":"2024-02-15 20:43:00","year":2024,"retweets":0,"comments":0,"likes":0,"text":"今天可以说是相当幸福的一天了[舞狮]喝了塞纳河畔左岸的咖啡 逛了庙会 吃了十八褶的包子 看了70岁小伙子跳水 听了哏都相声 吃了松鹤楼 和心心念念的九十葉[电影热辣滚烫]"},{"id":"曲艺·戏曲-00247","type":"曲艺·戏曲","bio":"","locationName":"天津之眼","address":"三岔河口永乐桥上","lat":39.15309,"lng":117.17998,"publishedAt":"2024-06-19 01:19:00","year":2024,"retweets":0,"comments":0,"likes":0,"text":"来天津半年多了，终于听了回相声。"},{"id":"曲艺·戏曲-00248","type":"曲艺·戏曲","bio":"✨✨Dprth9 💫💫 Only for you.","locationName":"天津之眼","address":"三岔河口永乐桥上","lat":39.15309,"lng":117.17998,"publishedAt":"2024-06-17 20:40:00","year":2024,"retweets":0,"comments":0,"likes":0,"text":"下休当一天特种兵天津之眼去了解放桥去了相声看了嘎巴菜 老豆腐 煎饼果子吃了小意大利去了..."},{"id":"曲艺·戏曲-00249","type":"曲艺·戏曲","bio":"","locationName":"天津之眼","address":"三岔河口永乐桥上","lat":39.15309,"lng":117.17998,"publishedAt":"2024-06-12 23:55:00","year":2024,"retweets":0,"comments":0,"likes":0,"text":"下午从未来广场开启今天的行程，兜兜转转到五大道已经天黑了没什么看头，后来打算改行程去海河，天津之眼。去天津之眼的出租车上跟师傅聊得很嗨，一开口就知道他是土著，自带一种相声腔，说起京津冀话里都是委屈和愤懑，但听起来有种欢快的感觉，他吐槽天津领导的时候有一种听相声的感觉 ..."},{"id":"曲艺·戏曲-00250","type":"曲艺·戏曲","bio":"是分享欲得到满足的秘密星球","locationName":"天津之眼","address":"三岔河口永乐桥上","lat":39.15309,"lng":117.17998,"publishedAt":"2024-06-10 20:23:00","year":2024,"retweets":0,"comments":0,"likes":0,"text":"OOTD👔——牛油果很好喝——山河屯铁锅炖 老味道👅——瓷房子真的就是字面意义（为什么天津这么多要门票的地方）——来看相声了 这是我最满意的活动——什么桥忘了🌉——世纪钟 人多的要死🔔——在天津之眼下和不讲理大爷吵了一架"},{"id":"曲艺·戏曲-00251","type":"曲艺·戏曲","bio":"人生难得一知己，但是我超额完成了✅","locationName":"天津之眼","address":"三岔河口永乐桥上","lat":39.15309,"lng":117.17998,"publishedAt":"2024-06-11 01:07:00","year":2024,"retweets":0,"comments":0,"likes":0,"text":"嘿嘿，突发奇想的想找个天津男朋友，这样就可以吹海河风，听相声，看日出🌅因为天津人的松弛感让人心神向往😌"},{"id":"曲艺·戏曲-00252","type":"曲艺·戏曲","bio":"温暖如初","locationName":"天津之眼","address":"三岔河口永乐桥上","lat":39.15309,"lng":117.17998,"publishedAt":"2024-05-25 22:18:00","year":2024,"retweets":0,"comments":0,"likes":0,"text":"相声太好看啦！！！"},{"id":"曲艺·戏曲-00253","type":"曲艺·戏曲","bio":"汉办cpik首尔汉语教师/汉硕/","locationName":"天津之眼","address":"三岔河口永乐桥上","lat":39.15309,"lng":117.17998,"publishedAt":"2024-06-01 22:13:00","year":2024,"retweets":0,"comments":0,"likes":0,"text":"快板这么一打啊 别的咱不夸…天津最适合的打开方式：共享单车🚴🏻‍♂️大爷跳水的狮子林桥🦁天津之眼🎡北洋医院🏥天主教堂⛪️沿着河边骑行，地摊经济繁荣👍"},{"id":"曲艺·戏曲-00254","type":"曲艺·戏曲","bio":"肖肖爱向向","locationName":"天津之眼","address":"三岔河口永乐桥上","lat":39.15309,"lng":117.17998,"publishedAt":"2024-05-27 23:22:00","year":2024,"retweets":0,"comments":0,"likes":0,"text":"天津第一天      每到一次北方，都会对那种一马平川来一嘴夸赞，哇瑟，修路修高铁好撇脱一下飞机，网约车师傅那口天津话就给我一种听相声的身临其境感       安排个三鲜锅贴、大魔王圣代，这晚饭算是安排妥当了。饭后九十九活到九十九，天津之眼打卡、天 ..."},{"id":"曲艺·戏曲-00255","type":"曲艺·戏曲","bio":"狗多人不怪。","locationName":"天津之眼","address":"三岔河口永乐桥上","lat":39.15309,"lng":117.17998,"publishedAt":"2024-05-26 19:53:00","year":2024,"retweets":0,"comments":0,"likes":0,"text":"来了天津卫 嘛也没学会第三次到天津，也是第一次游玩天津。坐游轮，听相声，吃小吃"},{"id":"曲艺·戏曲-00256","type":"曲艺·戏曲","bio":"","locationName":"天津之眼","address":"三岔河口永乐桥上","lat":39.15309,"lng":117.17998,"publishedAt":"2024-04-29 21:48:00","year":2024,"retweets":0,"comments":0,"likes":0,"text":"2024春末天津游洪湖里早餐一网打尽、同发号复兴路店5大盘、古文化街相声场里的快板大哥、海河夜游、酒店阳台观天津之眼、登瀛楼的罾蹦鲤鱼、西北角炸糕和西湖路小吃、五大道最地道天津大爷讲解、海河上各种风格的桥、清晨静谧的解放北路，都留下了深刻印象"},{"id":"曲艺·戏曲-00257","type":"曲艺·戏曲","bio":"因为爱情、不会轻易悲伤💜💐 所以一切都是幸福的模样🔮🎆","locationName":"天津之眼","address":"三岔河口永乐桥上","lat":39.15309,"lng":117.17998,"publishedAt":"2024-05-12 08:56:00","year":2024,"retweets":0,"comments":0,"likes":0,"text":"翻唱封神就喜欢国风带点京剧曲调🎵 快迟到了，也不耽误一路高歌王赫野值得🔥一轮啊！"},{"id":"曲艺·戏曲-00258","type":"曲艺·戏曲","bio":"修炼自己，不渡他人","locationName":"南市食品街","address":"慎益大街与荣业大街交汇处西南角","lat":39.13189,"lng":117.17761,"publishedAt":"2023-11-11 15:39:00","year":2023,"retweets":0,"comments":0,"likes":0,"text":"好吃好玩儿天津依旧是我喜欢的样子！温暖的老街道吃不够的小零嘴随处都能唠一口的相声"},{"id":"曲艺·戏曲-00259","type":"曲艺·戏曲","bio":"","locationName":"南市食品街","address":"慎益大街与荣业大街交汇处西南角","lat":39.13189,"lng":117.17761,"publishedAt":"2022-07-18 14:50:00","year":2022,"retweets":0,"comments":0,"likes":0,"text":"天津相声"},{"id":"曲艺·戏曲-00260","type":"曲艺·戏曲","bio":"","locationName":"南市食品街","address":"慎益大街与荣业大街交汇处西南角","lat":39.13189,"lng":117.17761,"publishedAt":"2023-03-24 18:43:00","year":2023,"retweets":0,"comments":0,"likes":0,"text":"运动后去逛南市食品街，里面居然没啥人，记忆中食品街里总是熙熙攘攘的人群！石头门坎的包子铺还在那个地方，那是他第一次请我吃饭的地方！又遇到耳朵眼炸糕店，吃豆沙馅的，话说还是传统豆沙馅的好吃！吃着炸糕，看着京剧，别有一番风味！出门做公交车，偶遇欣乐糕点店，里面真是不少人啊！我问服务员 ..."},{"id":"曲艺·戏曲-00261","type":"曲艺·戏曲","bio":"人生是旷野","locationName":"天津鼓楼","address":"老城厢中心","lat":39.14055,"lng":117.17472,"publishedAt":"2024-05-31 00:49:00","year":2024,"retweets":0,"comments":0,"likes":0,"text":"Day1️⃣in 天津去感受二胡快板伴奏下的生活节奏🎶"},{"id":"曲艺·戏曲-00262","type":"曲艺·戏曲","bio":"尽量快乐，尽量享受","locationName":"天津鼓楼","address":"老城厢中心","lat":39.14055,"lng":117.17472,"publishedAt":"2023-03-04 19:16:00","year":2023,"retweets":0,"comments":0,"likes":0,"text":"参加了一个女性主义/男性主义的观影沙龙提前恶补了上野千鹤子的两本书结果完全没有用上出门看了一场老天津busking（我打死也没想到大鼓唱到兴起也能大合唱"},{"id":"曲艺·戏曲-00263","type":"曲艺·戏曲","bio":"粉丝中的小清新","locationName":"天津鼓楼","address":"老城厢中心","lat":39.14055,"lng":117.17472,"publishedAt":"2023-01-24 13:05:00","year":2023,"retweets":0,"comments":0,"likes":0,"text":"天津相声"},{"id":"曲艺·戏曲-00264","type":"曲艺·戏曲","bio":"","locationName":"天津美术学院天纬路校区","address":"天纬路4号","lat":39.15197,"lng":117.18739,"publishedAt":"2023-06-21 02:00:00","year":2023,"retweets":0,"comments":0,"likes":0,"text":"学校毕业典礼请了德云社第一次跟相声演员对视好开心！"},{"id":"曲艺·戏曲-00265","type":"曲艺·戏曲","bio":"布艺手工制作，中国结艺饰品，创意DIY","locationName":"谦祥益茶楼","address":"估衣街64号，谦祥益文苑","lat":39.14552,"lng":117.17811,"publishedAt":"2022-07-16 15:58:00","year":2022,"retweets":0,"comments":0,"likes":0,"text":"相声"},{"id":"曲艺·戏曲-00266","type":"曲艺·戏曲","bio":"天津名流茶馆有限公司","locationName":"名流茶馆（古文化街店）","address":"新华路店：天津市和平区新华路177号和平文化宫1楼(近哈尔滨道)；古文化街店：南开区古文化街主街2楼；多伦道店：多伦道与河北路交口同方花园底。","lat":39.14437,"lng":117.18506,"publishedAt":"2024-05-19 18:55:00","year":2024,"retweets":0,"comments":0,"likes":0,"text":"相声演员的相爱相杀"},{"id":"曲艺·戏曲-00267","type":"曲艺·戏曲","bio":"天津名流茶馆有限公司","locationName":"名流茶馆（古文化街店）","address":"新华路店：天津市和平区新华路177号和平文化宫1楼(近哈尔滨道)；古文化街店：南开区古文化街主街2楼；多伦道店：多伦道与河北路交口同方花园底。","lat":39.14437,"lng":117.18506,"publishedAt":"2024-05-17 17:57:00","year":2024,"retweets":0,"comments":0,"likes":0,"text":"盘点相声演员的台上无大小"},{"id":"曲艺·戏曲-00268","type":"曲艺·戏曲","bio":"天津名流茶馆有限公司","locationName":"名流茶馆（古文化街店）","address":"新华路店：天津市和平区新华路177号和平文化宫1楼(近哈尔滨道)；古文化街店：南开区古文化街主街2楼；多伦道店：多伦道与河北路交口同方花园底。","lat":39.14437,"lng":117.18506,"publishedAt":"2024-05-17 18:01:00","year":2024,"retweets":0,"comments":0,"likes":0,"text":"盘点相声演员的台上无大小"},{"id":"曲艺·戏曲-00269","type":"曲艺·戏曲","bio":"天津名流茶馆有限公司","locationName":"名流茶馆（古文化街店）","address":"新华路店：天津市和平区新华路177号和平文化宫1楼(近哈尔滨道)；古文化街店：南开区古文化街主街2楼；多伦道店：多伦道与河北路交口同方花园底。","lat":39.14437,"lng":117.18506,"publishedAt":"2024-05-14 19:09:00","year":2024,"retweets":0,"comments":0,"likes":0,"text":"天津名流茶馆相声 学唱《探清水河》"},{"id":"曲艺·戏曲-00270","type":"曲艺·戏曲","bio":"天津名流茶馆有限公司","locationName":"名流茶馆（古文化街店）","address":"新华路店：天津市和平区新华路177号和平文化宫1楼(近哈尔滨道)；古文化街店：南开区古文化街主街2楼；多伦道店：多伦道与河北路交口同方花园底。","lat":39.14437,"lng":117.18506,"publishedAt":"2024-05-12 18:42:00","year":2024,"retweets":0,"comments":0,"likes":0,"text":"听相声学成语《力挽狂澜》"},{"id":"曲艺·戏曲-00271","type":"曲艺·戏曲","bio":"天津名流茶馆有限公司","locationName":"名流茶馆（古文化街店）","address":"新华路店：天津市和平区新华路177号和平文化宫1楼(近哈尔滨道)；古文化街店：南开区古文化街主街2楼；多伦道店：多伦道与河北路交口同方花园底。","lat":39.14437,"lng":117.18506,"publishedAt":"2024-05-09 18:19:00","year":2024,"retweets":0,"comments":0,"likes":0,"text":"听相声学成语《偷天换日》"},{"id":"曲艺·戏曲-00272","type":"曲艺·戏曲","bio":"天津名流茶馆有限公司","locationName":"名流茶馆（古文化街店）","address":"新华路店：天津市和平区新华路177号和平文化宫1楼(近哈尔滨道)；古文化街店：南开区古文化街主街2楼；多伦道店：多伦道与河北路交口同方花园底。","lat":39.14437,"lng":117.18506,"publishedAt":"2024-05-07 18:08:00","year":2024,"retweets":0,"comments":0,"likes":0,"text":"听相声学成语 虚张声势"},{"id":"曲艺·戏曲-00273","type":"曲艺·戏曲","bio":"天津名流茶馆有限公司","locationName":"名流茶馆（古文化街店）","address":"新华路店：天津市和平区新华路177号和平文化宫1楼(近哈尔滨道)；古文化街店：南开区古文化街主街2楼；多伦道店：多伦道与河北路交口同方花园底。","lat":39.14437,"lng":117.18506,"publishedAt":"2024-05-08 18:26:00","year":2024,"retweets":0,"comments":0,"likes":0,"text":"听相声学成语 《信口雌黄》"},{"id":"曲艺·戏曲-00274","type":"曲艺·戏曲","bio":"天津名流茶馆有限公司","locationName":"名流茶馆（古文化街店）","address":"新华路店：天津市和平区新华路177号和平文化宫1楼(近哈尔滨道)；古文化街店：南开区古文化街主街2楼；多伦道店：多伦道与河北路交口同方花园底。","lat":39.14437,"lng":117.18506,"publishedAt":"2024-05-05 18:09:00","year":2024,"retweets":0,"comments":0,"likes":0,"text":"听相声学成语 含沙射影"},{"id":"曲艺·戏曲-00275","type":"曲艺·戏曲","bio":"天津名流茶馆有限公司","locationName":"名流茶馆（古文化街店）","address":"新华路店：天津市和平区新华路177号和平文化宫1楼(近哈尔滨道)；古文化街店：南开区古文化街主街2楼；多伦道店：多伦道与河北路交口同方花园底。","lat":39.14437,"lng":117.18506,"publishedAt":"2024-05-06 18:05:00","year":2024,"retweets":0,"comments":0,"likes":0,"text":"听相声学成语 倾家荡产"},{"id":"曲艺·戏曲-00276","type":"曲艺·戏曲","bio":"🔹我去过很多地方，但我只遇到过很少的我们🔸","locationName":"名流茶馆（古文化街店）","address":"新华路店：天津市和平区新华路177号和平文化宫1楼(近哈尔滨道)；古文化街店：南开区古文化街主街2楼；多伦道店：多伦道与河北路交口同方花园底。","lat":39.14437,"lng":117.18506,"publishedAt":"2024-02-21 21:38:00","year":2024,"retweets":0,"comments":0,"likes":0,"text":"来天津怎么能不看一段相声呢"},{"id":"曲艺·戏曲-00277","type":"曲艺·戏曲","bio":"爱旅行，爱生活","locationName":"名流茶馆（古文化街店）","address":"新华路店：天津市和平区新华路177号和平文化宫1楼(近哈尔滨道)；古文化街店：南开区古文化街主街2楼；多伦道店：多伦道与河北路交口同方花园底。","lat":39.14437,"lng":117.18506,"publishedAt":"2023-01-22 23:04:00","year":2023,"retweets":0,"comments":0,"likes":0,"text":"承蒙朋友的精心安排，本次天津之行算是一次悠闲的历史文化之旅。今晚的首场文化活动是在名流茶馆听了一场津派传统相声，小剧场座无虚席，现场频频互动，确实比在电视📺里看相声更有氛围。这个大年初一很特别！"},{"id":"曲艺·戏曲-00278","type":"曲艺·戏曲","bio":"","locationName":"名流茶馆（古文化街店）","address":"新华路店：天津市和平区新华路177号和平文化宫1楼(近哈尔滨道)；古文化街店：南开区古文化街主街2楼；多伦道店：多伦道与河北路交口同方花园底。","lat":39.14437,"lng":117.18506,"publishedAt":"2023-06-11 11:57:00","year":2023,"retweets":0,"comments":0,"likes":0,"text":"吃完早点赶早场来名流茶馆听相声，快乐两小时。中午吃三合益的凉皮牛筋面双拼，加黑蒜子牛肉粒/全爆/八珍豆腐/老爆三/银丝卷，最爱丰富料足且很难找到豆腐的八珍豆腐。"},{"id":"曲艺·戏曲-00279","type":"曲艺·戏曲","bio":"是非在己，毁誉由人，得失不论。","locationName":"名流茶馆（古文化街店）","address":"新华路店：天津市和平区新华路177号和平文化宫1楼(近哈尔滨道)；古文化街店：南开区古文化街主街2楼；多伦道店：多伦道与河北路交口同方花园底。","lat":39.14437,"lng":117.18506,"publishedAt":"2024-01-06 19:36:00","year":2024,"retweets":0,"comments":0,"likes":0,"text":"一个人听相声属于几级孤独了？"},{"id":"曲艺·戏曲-00280","type":"曲艺·戏曲","bio":"👎🏻｜镇魂","locationName":"名流茶馆（古文化街店）","address":"新华路店：天津市和平区新华路177号和平文化宫1楼(近哈尔滨道)；古文化街店：南开区古文化街主街2楼；多伦道店：多伦道与河北路交口同方花园底。","lat":39.14437,"lng":117.18506,"publishedAt":"2024-01-02 14:36:00","year":2024,"retweets":0,"comments":0,"likes":0,"text":"在天津吃上了一些陌生的早点（猎奇闻所未闻且味道很难评 看到了天津相声吃上了见饼国子吃上了小徐做的菜拜拜啦tiàn jìng！"},{"id":"曲艺·戏曲-00281","type":"曲艺·戏曲","bio":"美食/探店/生活 彤言无忌","locationName":"名流茶馆（古文化街店）","address":"新华路店：天津市和平区新华路177号和平文化宫1楼(近哈尔滨道)；古文化街店：南开区古文化街主街2楼；多伦道店：多伦道与河北路交口同方花园底。","lat":39.14437,"lng":117.18506,"publishedAt":"2023-03-27 08:42:00","year":2023,"retweets":0,"comments":0,"likes":0,"text":"还得是相声能让我持续大笑😆"},{"id":"曲艺·戏曲-00282","type":"曲艺·戏曲","bio":"道理空洞  情深意重，长出我一身无谓形容","locationName":"名流茶馆（古文化街店）","address":"新华路店：天津市和平区新华路177号和平文化宫1楼(近哈尔滨道)；古文化街店：南开区古文化街主街2楼；多伦道店：多伦道与河北路交口同方花园底。","lat":39.14437,"lng":117.18506,"publishedAt":"2023-05-01 17:47:00","year":2023,"retweets":0,"comments":0,"likes":0,"text":"我对dys以外的相声团伙是有点子包容在身上的"},{"id":"曲艺·戏曲-00283","type":"曲艺·戏曲","bio":"登哥铁粉  追剧🔥狂人  爱旅游✈️爱游泳🏊🏻爱钢琴🎹爱生活   超级典型的水瓶男（相信星座性格，不相信星座运势）","locationName":"名流茶馆（古文化街店）","address":"新华路店：天津市和平区新华路177号和平文化宫1楼(近哈尔滨道)；古文化街店：南开区古文化街主街2楼；多伦道店：多伦道与河北路交口同方花园底。","lat":39.14437,"lng":117.18506,"publishedAt":"2023-02-18 16:18:00","year":2023,"retweets":0,"comments":0,"likes":0,"text":"虽然没有抢到德云社的门票，但是名流茶馆也一样very nice，贼地道，比春晚的相声强800倍，来天津，必须得听相声"},{"id":"曲艺·戏曲-00284","type":"曲艺·戏曲","bio":"上过央视的模特一枚；童模 服表艺考导师；微电影短剧宣传片演员","locationName":"名流茶馆（古文化街店）","address":"新华路店：天津市和平区新华路177号和平文化宫1楼(近哈尔滨道)；古文化街店：南开区古文化街主街2楼；多伦道店：多伦道与河北路交口同方花园底。","lat":39.14437,"lng":117.18506,"publishedAt":"2023-11-22 23:12:00","year":2023,"retweets":0,"comments":0,"likes":0,"text":"天津相声真逗哏演出看的我真开心"},{"id":"曲艺·戏曲-00285","type":"曲艺·戏曲","bio":"行者无疆","locationName":"名流茶馆（古文化街店）","address":"新华路店：天津市和平区新华路177号和平文化宫1楼(近哈尔滨道)；古文化街店：南开区古文化街主街2楼；多伦道店：多伦道与河北路交口同方花园底。","lat":39.14437,"lng":117.18506,"publishedAt":"2023-05-31 18:04:00","year":2023,"retweets":0,"comments":0,"likes":0,"text":"听听相声还是不错的"},{"id":"曲艺·戏曲-00286","type":"曲艺·戏曲","bio":"好坏都是开始","locationName":"名流茶馆（古文化街店）","address":"新华路店：天津市和平区新华路177号和平文化宫1楼(近哈尔滨道)；古文化街店：南开区古文化街主街2楼；多伦道店：多伦道与河北路交口同方花园底。","lat":39.14437,"lng":117.18506,"publishedAt":"2023-09-01 22:11:00","year":2023,"retweets":0,"comments":0,"likes":0,"text":"好可爱的相声演员们值回票价"},{"id":"曲艺·戏曲-00287","type":"曲艺·戏曲","bio":"我的生活已经步入卧轨","locationName":"名流茶馆（古文化街店）","address":"新华路店：天津市和平区新华路177号和平文化宫1楼(近哈尔滨道)；古文化街店：南开区古文化街主街2楼；多伦道店：多伦道与河北路交口同方花园底。","lat":39.14437,"lng":117.18506,"publishedAt":"2023-09-03 00:03:00","year":2023,"retweets":0,"comments":0,"likes":10,"text":"哏儿都的幸福指数诚不负我狮子林桥大爷跳水+名流茶馆相声+海河夜景绝美欧式建筑群+大爷三轮车讲解五大道+海鲜我宣布天津是我迄今最爱城市top3"},{"id":"曲艺·戏曲-00288","type":"曲艺·戏曲","bio":"好想时间永远停留在2019年","locationName":"名流茶馆（古文化街店）","address":"新华路店：天津市和平区新华路177号和平文化宫1楼(近哈尔滨道)；古文化街店：南开区古文化街主街2楼；多伦道店：多伦道与河北路交口同方花园底。","lat":39.14437,"lng":117.18506,"publishedAt":"2023-05-01 11:16:00","year":2023,"retweets":0,"comments":0,"likes":0,"text":"听相声🤓"},{"id":"曲艺·戏曲-00289","type":"曲艺·戏曲","bio":"sbbbbbbbbbb","locationName":"名流茶馆（古文化街店）","address":"新华路店：天津市和平区新华路177号和平文化宫1楼(近哈尔滨道)；古文化街店：南开区古文化街主街2楼；多伦道店：多伦道与河北路交口同方花园底。","lat":39.14437,"lng":117.18506,"publishedAt":"2023-01-01 20:50:00","year":2023,"retweets":0,"comments":0,"likes":0,"text":"来天津了这不得听听相声"},{"id":"曲艺·戏曲-00290","type":"曲艺·戏曲","bio":"","locationName":"大悲禅院","address":"天纬路40号","lat":39.15499,"lng":117.18386,"publishedAt":"2024-05-08 16:58:00","year":2024,"retweets":0,"comments":0,"likes":0,"text":"听完相声祈完福启程回家～"},{"id":"曲艺·戏曲-00291","type":"曲艺·戏曲","bio":"浪漫疯子","locationName":"大悲禅院","address":"天纬路40号","lat":39.15499,"lng":117.18386,"publishedAt":"2024-05-02 22:20:00","year":2024,"retweets":0,"comments":0,"likes":0,"text":"我来天津第一件事就是去大悲禅院，门口就有说相声的，不愧是天津啊！！！"},{"id":"曲艺·戏曲-00292","type":"曲艺·戏曲","bio":"多说无益！却总说多！","locationName":"金钢桥","address":"天津市红桥区中山路","lat":39.14989,"lng":117.18728,"publishedAt":"2024-02-11 00:13:00","year":2024,"retweets":0,"comments":0,"likes":16,"text":"在我四十岁生日这天，驱车一百多公里，听着郭德纲相声来到天津，品美食、听脱口秀、赏海河夜景，顺便拍个鸟。天津过年真热闹，加特林、无人机、孔明灯，北京是不敢想象的。"},{"id":"曲艺·戏曲-00293","type":"曲艺·戏曲","bio":"","locationName":"老城小梨园","address":"天津市南开区鼓楼东街202号(老城博物馆内)","lat":39.14058,"lng":117.17644,"publishedAt":"2024-05-11 14:33:00","year":2024,"retweets":0,"comments":0,"likes":0,"text":"2024重游2011故地，相声没有以前好笑了"},{"id":"曲艺·戏曲-00294","type":"曲艺·戏曲","bio":"新年兔头，眼看新年已经旧了70%","locationName":"老城小梨园","address":"天津市南开区鼓楼东街202号(老城博物馆内)","lat":39.14058,"lng":117.17644,"publishedAt":"2024-05-01 19:21:00","year":2024,"retweets":0,"comments":0,"likes":0,"text":"打卡天津相声"},{"id":"曲艺·戏曲-00295","type":"曲艺·戏曲","bio":"天津籍相声演员/大部分人说声音好听/配音员/峯岸南/水原希子/老歌爱好者/收集小卡片/商演请私聊/","locationName":"老城小梨园","address":"天津市南开区鼓楼东街202号(老城博物馆内)","lat":39.14058,"lng":117.17644,"publishedAt":"2024-03-30 22:49:00","year":2024,"retweets":0,"comments":0,"likes":0,"text":"公元2024年3月30日星期六晚场，本人杨有才于老城小梨园相声茶馆逗哏一次！特记于杨有才家谱之上！"},{"id":"曲艺·戏曲-00296","type":"曲艺·戏曲","bio":"隐忍，低调","locationName":"老城小梨园","address":"天津市南开区鼓楼东街202号(老城博物馆内)","lat":39.14058,"lng":117.17644,"publishedAt":"2023-09-09 17:47:00","year":2023,"retweets":0,"comments":0,"likes":0,"text":"听一段相声，淋一场秋雨"},{"id":"曲艺·戏曲-00297","type":"曲艺·戏曲","bio":"快乐最重要‼️‼️‼️","locationName":"老城小梨园","address":"天津市南开区鼓楼东街202号(老城博物馆内)","lat":39.14058,"lng":117.17644,"publishedAt":"2023-02-08 12:05:00","year":2023,"retweets":0,"comments":0,"likes":0,"text":"来天津就是要听相声的呀"},{"id":"曲艺·戏曲-00298","type":"曲艺·戏曲","bio":"不抱怨，改变从现在开始","locationName":"老城小梨园","address":"天津市南开区鼓楼东街202号(老城博物馆内)","lat":39.14058,"lng":117.17644,"publishedAt":"2023-02-18 13:34:00","year":2023,"retweets":0,"comments":0,"likes":0,"text":"老城小梨园相声"},{"id":"曲艺·戏曲-00299","type":"曲艺·戏曲","bio":"常回味 不回头  (来自王红红的乱七八糟日常","locationName":"老城小梨园","address":"天津市南开区鼓楼东街202号(老城博物馆内)","lat":39.14058,"lng":117.17644,"publishedAt":"2023-01-07 21:24:00","year":2023,"retweets":0,"comments":0,"likes":0,"text":"座上安安分分听相声座下偷偷勾姐姐小手"},{"id":"曲艺·戏曲-00300","type":"曲艺·戏曲","bio":"Amor vincit omnia","locationName":"老城小梨园","address":"天津市南开区鼓楼东街202号(老城博物馆内)","lat":39.14058,"lng":117.17644,"publishedAt":"2023-11-19 14:49:00","year":2023,"retweets":0,"comments":0,"likes":0,"text":"相声 好看"},{"id":"曲艺·戏曲-00301","type":"曲艺·戏曲","bio":"知行合一","locationName":"老城小梨园","address":"天津市南开区鼓楼东街202号(老城博物馆内)","lat":39.14058,"lng":117.17644,"publishedAt":"2022-07-08 19:43:00","year":2022,"retweets":0,"comments":0,"likes":0,"text":"天津出差，今晚没有航班了，订了明天上午的航班。决定今晚来听相声。只要66元。人不多。但演员也算卖力。碰到一个黑珍珠饭馆儿，时间紧凑没去，随便找了个附近高分的小馆子，吃了酱排骨和凉拌菠菜。..."},{"id":"曲艺·戏曲-00302","type":"曲艺·戏曲","bio":"","locationName":"老城小梨园","address":"天津市南开区鼓楼东街202号(老城博物馆内)","lat":39.14058,"lng":117.17644,"publishedAt":"2024-01-08 13:32:00","year":2024,"retweets":0,"comments":0,"likes":0,"text":"听听相声"},{"id":"曲艺·戏曲-00303","type":"曲艺·戏曲","bio":"健身，看书，喝茶，写字，陪伴一儿一女的闲逸生活……","locationName":"老城小梨园","address":"天津市南开区鼓楼东街202号(老城博物馆内)","lat":39.14058,"lng":117.17644,"publishedAt":"2023-12-09 22:17:00","year":2023,"retweets":0,"comments":0,"likes":0,"text":"老城小梨园80后的相声茶馆"},{"id":"曲艺·戏曲-00304","type":"曲艺·戏曲","bio":"神力女超人🏋🏻","locationName":"老城小梨园","address":"天津市南开区鼓楼东街202号(老城博物馆内)","lat":39.14058,"lng":117.17644,"publishedAt":"2022-08-14 20:30:00","year":2022,"retweets":0,"comments":0,"likes":0,"text":"看live蔫头耷拉脑袋。听相声嘎嘎的这个美呦🥴"},{"id":"曲艺·戏曲-00305","type":"曲艺·戏曲","bio":"平安喜乐","locationName":"老城小梨园","address":"天津市南开区鼓楼东街202号(老城博物馆内)","lat":39.14058,"lng":117.17644,"publishedAt":"2023-08-18 19:14:00","year":2023,"retweets":0,"comments":0,"likes":0,"text":"开始听相声"},{"id":"曲艺·戏曲-00306","type":"曲艺·戏曲","bio":"能去你家蹭饭吗？","locationName":"老城小梨园","address":"天津市南开区鼓楼东街202号(老城博物馆内)","lat":39.14058,"lng":117.17644,"publishedAt":"2023-09-24 15:13:00","year":2023,"retweets":0,"comments":0,"likes":0,"text":"周杰伦改行说相声了"},{"id":"曲艺·戏曲-00307","type":"曲艺·戏曲","bio":"一些乱七八糟的日常和废话","locationName":"万通上游・国际","address":"三条石大街135号","lat":39.1528,"lng":117.17607,"publishedAt":"2023-09-24 12:11:00","year":2023,"retweets":0,"comments":0,"likes":0,"text":"下次想听德云社相声"},{"id":"曲艺·戏曲-00308","type":"曲艺·戏曲","bio":"","locationName":"利德顺小老饭庄(西马路店)","address":"西马路(西北角地铁站C口步行410米)","lat":39.14121,"lng":117.16524,"publishedAt":"2023-05-03 14:41:00","year":2023,"retweets":0,"comments":0,"likes":0,"text":"没来得及听上角儿们的相声，那就尝尝津菜吧"},{"id":"曲艺·戏曲-00309","type":"曲艺·戏曲","bio":"波浪在海面上 营火在岸边","locationName":"利德顺小老饭庄(西马路店)","address":"西马路(西北角地铁站C口步行410米)","lat":39.14121,"lng":117.16524,"publishedAt":"2022-08-27 21:38:00","year":2022,"retweets":0,"comments":0,"likes":0,"text":"·竹板这么一打呀 别的咱不夸   到天津凭嘛不听相声"},{"id":"曲艺·戏曲-00310","type":"曲艺·戏曲","bio":"_Aᴄᴛɪᴏɴ","locationName":"洪湖里","address":"洪湖北路与洪湖东路交叉口西60米","lat":39.16813,"lng":117.15376,"publishedAt":"2024-04-05 23:02:00","year":2024,"retweets":0,"comments":0,"likes":10,"text":"-为了这口早点 愣是六点多出发去天津-四个人一路嘻嘻哈哈倒是开心的很-“司机师傅”听相声的时候直接补觉-第一次去杨光的快乐生活 回到小时候了-不得不说 这早点排队真长 都成风景线了"},{"id":"曲艺·戏曲-00311","type":"曲艺·戏曲","bio":"认真且怂，从一而终。","locationName":"洪湖里","address":"洪湖北路与洪湖东路交叉口西60米","lat":39.16813,"lng":117.15376,"publishedAt":"2023-09-29 22:46:00","year":2023,"retweets":0,"comments":0,"likes":0,"text":"无煎饼不天津嘎巴菜铺子里听了一早晨相声"},{"id":"曲艺·戏曲-00312","type":"曲艺·戏曲","bio":"不是我性格不好，只是你驾驭不了。","locationName":"海河公园","address":"台儿庄路3-10号","lat":39.12504,"lng":117.20736,"publishedAt":"2024-06-15 18:32:00","year":2024,"retweets":0,"comments":0,"likes":0,"text":"旁边的大爷。。。可能没有那么老，正在视频给别人心灵鸡汤。。情啊爱啊，哈哈天津味的普通话，话说天津人说话就跟说相声似的"},{"id":"曲艺·戏曲-00313","type":"曲艺·戏曲","bio":"","locationName":"海河公园","address":"台儿庄路3-10号","lat":39.12504,"lng":117.20736,"publishedAt":"2024-05-30 22:40:00","year":2024,"retweets":0,"comments":0,"likes":0,"text":"天津津湾广场，海河公园打卡练身段的美女，街头歌手翻唱毛不易的无名的人；路过相声茶馆，天津老城博物馆。 住在桔子水晶酒店，这次洗发水沐浴露是白茶味。"},{"id":"曲艺·戏曲-00314","type":"曲艺·戏曲","bio":"影于途 感随心","locationName":"海河公园","address":"台儿庄路3-10号","lat":39.12504,"lng":117.20736,"publishedAt":"2024-05-09 14:27:00","year":2024,"retweets":0,"comments":0,"likes":58,"text":"如今天津海河岸边已经成了直播圣地，各路妖魔鬼怪打开手机开着直播，谢谢大哥大姐的小红心喊着，点点关注打PK叫着，抖音快手让一座城市有了不一样的热闹。前天遛弯，看见一群人围着一个小乐队，喇叭里的伴奏音乐还不如旁边天津伯伯听相声的匣子声音大，也没有开直播，主唱显然有一些腼腆，乐队的伴奏 ..."},{"id":"曲艺·戏曲-00315","type":"曲艺·戏曲","bio":"运营天津地铁1号线及6号线二期(渌咸段)","locationName":"瞰海","address":"河北大街与北开大街交口瞰海小区内","lat":39.15462,"lng":117.17402,"publishedAt":"2022-01-09 13:40:00","year":2022,"retweets":0,"comments":0,"likes":0,"text":"“疫情就是命令，防控就是责任”，铁建轨道天津运营调度票务中心根据疫情防控形势，紧急召开部门会议，提前谋划，超前部署，在动态排查人员情况下，及时调整控制中心大厅班次，启动轮岗机制；值班主任带领当班调度员克服困难，连续奋战，确保行车组织“大脑”运转正常。根据疫情形势 ..."},{"id":"曲艺·戏曲-00316","type":"曲艺·戏曲","bio":"和光同尘","locationName":"鼓楼商业街","address":"鼓楼北街1号","lat":39.14104,"lng":117.17573,"publishedAt":"2023-11-25 15:08:00","year":2023,"retweets":0,"comments":0,"likes":23,"text":"听相声"},{"id":"曲艺·戏曲-00317","type":"曲艺·戏曲","bio":"爱爱爱啊","locationName":"鼓楼商业街","address":"鼓楼北街1号","lat":39.14104,"lng":117.17573,"publishedAt":"2022-09-20 22:27:00","year":2022,"retweets":0,"comments":0,"likes":0,"text":"去了鼓楼步行街，然后呢，有一个特别好吃的老味天津早点，马记富来饭庄。然后去泥人张，和另外几家玉器店转了转。哦，对了，小梨园儿相声会所，也是老城博物馆关门了，还有找到了一个名人故居，隐藏在里面特别难找，门口的石壁颇有特色。感觉下次可以来听个相声也不错呢。"},{"id":"曲艺·戏曲-00318","type":"曲艺·戏曲","bio":"强大自己是解决一切问题的根本","locationName":"鼓楼商业街","address":"鼓楼北街1号","lat":39.14104,"lng":117.17573,"publishedAt":"2024-02-25 22:01:00","year":2024,"retweets":0,"comments":0,"likes":0,"text":"感觉听了个假相声"},{"id":"曲艺·戏曲-00319","type":"曲艺·戏曲","bio":"在海河和海洋文化的哺育下，天津以高度开放的姿态融入世界经济发展的大格局，正在向独具特色的国际性、现代化宜居城市迈进。这里是天津市政府新闻办…","locationName":"鼓楼商业街","address":"鼓楼北街1号","lat":39.14104,"lng":117.17573,"publishedAt":"2024-02-13 12:12:00","year":2024,"retweets":0,"comments":0,"likes":0,"text":"【新春走基层 | 鼓楼灯会精彩纷呈人气火爆 广东会馆京剧“圈粉”年轻受众】春节期间，鼓楼夜景分外璀璨。2024天津鼓楼新春灯会自正月初一举办以来，来自全国各地的游客汇聚于此，欣赏着这份独特的春节文旅大餐。截至目前，新春灯会日入场人数达到2万5千人次， ..."},{"id":"曲艺·戏曲-00320","type":"曲艺·戏曲","bio":"勇敢的人先享受世界🌎","locationName":"鼓楼商业街","address":"鼓楼北街1号","lat":39.14104,"lng":117.17573,"publishedAt":"2023-07-13 13:16:00","year":2023,"retweets":0,"comments":0,"likes":0,"text":"来天津当然少不了听相声呀！！！"},{"id":"曲艺·戏曲-00321","type":"曲艺·戏曲","bio":"偶尔小丧也要记得热爱生活哟(♡˙︶˙♡)","locationName":"鼓楼商业街","address":"鼓楼北街1号","lat":39.14104,"lng":117.17573,"publishedAt":"2023-07-22 13:19:00","year":2023,"retweets":0,"comments":0,"likes":0,"text":"前排 头排 坐我腿上讲的相声哈哈哈哈哈哈哈"},{"id":"曲艺·戏曲-00322","type":"曲艺·戏曲","bio":"","locationName":"天津市河北区人民法院","address":"黄纬路17号","lat":39.15595,"lng":117.18753,"publishedAt":"2023-10-27 13:16:00","year":2023,"retweets":0,"comments":0,"likes":0,"text":"解锁新地图司机师傅用一股相声味儿的口音说我这么漂亮的小姑娘怎么来这种糟心地方，还说我会被职业逼成冷美人儿，逗不乐了都，还免费当了一分钟导游。对了，他还说郭德纲是他兄弟……"},{"id":"曲艺·戏曲-00323","type":"曲艺·戏曲","bio":"强者惜字如金，弱者废话连篇。  ​​​","locationName":"广泰园","address":"广开大街13号","lat":39.13521,"lng":117.16171,"publishedAt":"2022-01-31 22:35:00","year":2022,"retweets":0,"comments":0,"likes":0,"text":"姜昆说话都漏风了，咬字不清楚啊！老了，舌头不好使了。哎，倚老卖老呗！没有岳云鹏的相声好。"},{"id":"曲艺·戏曲-00324","type":"曲艺·戏曲","bio":"","locationName":"广东会馆","address":"东门里257号","lat":39.14029,"lng":117.1755,"publishedAt":"2024-05-24 00:34:00","year":2024,"retweets":0,"comments":0,"likes":0,"text":"2024年广东会馆“京剧正青春系列”演出首场《大探二》 之二进宫2024.05.01 天津京剧院演出万    琳 饰 杨    波左洪莲 饰 徐延昭闫文倩 饰 李艳妃"},{"id":"曲艺·戏曲-00325","type":"曲艺·戏曲","bio":"","locationName":"广东会馆","address":"东门里257号","lat":39.14029,"lng":117.1755,"publishedAt":"2024-05-23 23:49:00","year":2024,"retweets":0,"comments":0,"likes":0,"text":"2024年广东会馆“京剧正青春系列”演出首场《大探二》 之探皇陵2024.05.01 天津京剧院演出万    琳 饰 杨    波左洪莲 饰 徐延昭闫文倩 饰 李艳妃"},{"id":"曲艺·戏曲-00326","type":"曲艺·戏曲","bio":"","locationName":"广东会馆","address":"东门里257号","lat":39.14029,"lng":117.1755,"publishedAt":"2024-05-23 23:35:00","year":2024,"retweets":0,"comments":0,"likes":0,"text":"2024年广东会馆“京剧正青春系列”演出首场《大探二》 2024.05.01 天津京剧院演出万    琳 饰 杨    波左洪莲 饰 徐延昭闫文倩 饰 李艳妃"},